{"features":[{"geometry":{"coordinates":[5.933506,43.137387],"type":"Point"},"properties":{"description":"","id":"TOTELS","name":"Téléphérique","wheelchair_boarding":"available"},"type":"Feature"},{"geometry":{"coordinates":[5.98355,43.107951],"type":"Point"},"properties":{"description":"","id":"GASGES","name":"St Geneviève","wheelchair_boarding":"available"},"type":"Feature"},{"geometry":{"coordinates":[5.917281,43.142308],"type":"Point"},"properties":{"description":"","id":"TOFROO","name":"Fort Rouge","wheelchair_boarding":"available"},"type":"Feature"},{"geometry":{"coordinates":[6.00427,43.145772],"type":"Point"},"properties":{"description":"","id":"VATORE","name":"Tortel","wheelchair_boarding":"available"},"type":"Feature"},{"geometry":{"coordinates":[5.79993,43.0743],"type":"Point"},"properties":{"description":"","id":"SIPBRE","name":"Port du Brusc","wheelchair_boarding":"available"},"type":"Feature"},{"geometry":{"coordinates":[6.146169,43.11667],"type":"Point"},"properties":{"description":"","id":"HYSKPE","name":"Skate Park","wheelchair_boarding":"available"},"type":"Feature"},{"geometry":{"coordinates":[6.058576,43.121932],"type":"Point"},"properties":{"description":"","id":"CRAUGO","name":"St Augustin","wheelchair_boarding":"available"},"type":"Feature"},{"geometry":{"coordinates":[6.135563,43.120505],"type":"Point"},"properties":{"description":"","id":"HYBIGN","name":"Bigaradiers","wheelchair_boarding":"available"},"type":"Feature"},{"geometry":{"coordinates":[6.063714,43.105231],"type":"Point"},"properties":{"description":"","id":"CAPANS","name":"Paradis Nord","wheelchair_boarding":"available"},"type":"Feature"},{"geometry":{"coordinates":[5.979903,43.147685],"type":"Point"},"properties":{"description":"","id":"VAHSON","name":"Hameau du Soleil","wheelchair_boarding":"available"},"type":"Feature"},{"geometry":{"coordinates":[6.14962,43.083038],"type":"Point"},"properties":{"description":"","id":"HYPA1O","name":"P+R Arromanches 1","wheelchair_boarding":"available"},"type":"Feature"},{"geometry":{"coordinates":[6.111675,43.084463],"type":"Point"},"properties":{"description":"","id":"HYSLVS","name":"San Salvadour","wheelchair_boarding":"available"},"type":"Feature"},{"geometry":{"coordinates":[5.939319,43.126103],"type":"Point"},"properties":{"description":"","id":"TOCICS","name":"Cimetière (Central)","wheelchair_boarding":"available"},"type":"Feature"},{"geometry":{"coordinates":[6.006095,43.123925],"type":"Point"},"properties":{"description":"","id":"GAGADN","name":"Gardanne","wheelchair_boarding":"available"},"type":"Feature"},{"geometry":{"coordinates":[5.812847,43.103082],"type":"Point"},"properties":{"description":"","id":"SIHOIO","name":"Les Hoirs","wheelchair_boarding":"available"},"type":"Feature"},{"geometry":{"coordinates":[6.098989,43.088016],"type":"Point"},"properties":{"description":"","id":"CAANEO","name":"Anémones","wheelchair_boarding":"available"},"type":"Feature"},{"geometry":{"coordinates":[5.981551,43.136344],"type":"Point"},"properties":{"description":"","id":"VAJAUS","name":"Jaurès","wheelchair_boarding":"available"},"type":"Feature"},{"geometry":{"coordinates":[6.118472,43.172197],"type":"Point"},"properties":{"description":"","id":"HYSAUE","name":"Rd Pt Sauvebonne","wheelchair_boarding":"available"},"type":"Feature"},{"geometry":{"coordinates":[5.852551,43.104554],"type":"Point"},"properties":{"description":"","id":"SEPAQS","name":"Parc Aquatique","wheelchair_boarding":"available"},"type":"Feature"},{"geometry":{"coordinates":[6.00765,43.119332],"type":"Point"},"properties":{"description":"","id":"GAGYMS","name":"Gymnase","wheelchair_boarding":"available"},"type":"Feature"},{"geometry":{"coordinates":[5.865004,43.107077],"type":"Point"},"properties":{"description":"","id":"SESJEN","name":"St Jean (La Seyne)","wheelchair_boarding":"available"},"type":"Feature"},{"geometry":{"coordinates":[5.914494,43.137157],"type":"Point"},"properties":{"description":"","id":"TOTRAO","name":"Tranchée","wheelchair_boarding":"available"},"type":"Feature"},{"geometry":{"coordinates":[6.059849,43.100942],"type":"Point"},"properties":{"description":"","id":"CABEAN","name":"Beau Vézé","wheelchair_boarding":"available"},"type":"Feature"},{"geometry":{"coordinates":[6.147146,43.055893],"type":"Point"},"properties":{"description":"","id":"HYCPLE","name":"Campéoles","wheelchair_boarding":"available"},"type":"Feature"},{"geometry":{"coordinates":[6.082345,43.106617],"type":"Point"},"properties":{"description":"","id":"CABEN2","name":"Benoite 2","wheelchair_boarding":"available"},"type":"Feature"},{"geometry":{"coordinates":[5.879018,43.081774],"type":"Point"},"properties":{"description":"","id":"SETRAE","name":"Transformateur","wheelchair_boarding":"available"},"type":"Feature"},{"geometry":{"coordinates":[5.968924,43.151243],"type":"Point"},"properties":{"description":"","id":"TOUBAS","name":"Uba (Favières)","wheelchair_boarding":"available"},"type":"Feature"},{"geometry":{"coordinates":[5.981057,43.128725],"type":"Point"},"properties":{"description":"","id":"TOGENS","name":"Genevoix","wheelchair_boarding":"available"},"type":"Feature"},{"geometry":{"coordinates":[5.992355,43.113136],"type":"Point"},"properties":{"description":"","id":"GAFLEN","name":"Fleurie","wheelchair_boarding":"available"},"type":"Feature"},{"geometry":{"coordinates":[5.881085,43.120514],"type":"Point"},"properties":{"description":"","id":"OLASTN","name":"Astégiano","wheelchair_boarding":"available"},"type":"Feature"},{"geometry":{"coordinates":[5.998245,43.115916],"type":"Point"},"properties":{"description":"","id":"GAAUBE","name":"Aubépine","wheelchair_boarding":"available"},"type":"Feature"},{"geometry":{"coordinates":[5.884285,43.099225],"type":"Point"},"properties":{"description":"","id":"SEKENN","name":"Kennedy","wheelchair_boarding":"available"},"type":"Feature"},{"geometry":{"coordinates":[6.089271,43.100558],"type":"Point"},"properties":{"description":"","id":"CAVLLE","name":"Vallon","wheelchair_boarding":"available"},"type":"Feature"},{"geometry":{"coordinates":[5.947703,43.130027],"type":"Point"},"properties":{"description":"","id":"TOPEGO","name":"Péguy","wheelchair_boarding":"available"},"type":"Feature"},{"geometry":{"coordinates":[6.017341,43.132457],"type":"Point"},"properties":{"description":"","id":"GAPLAS","name":"Planquette","wheelchair_boarding":"available"},"type":"Feature"},{"geometry":{"coordinates":[5.893339,43.121048],"type":"Point"},"properties":{"description":"","id":"TOLYSS","name":"Lysia","wheelchair_boarding":"available"},"type":"Feature"},{"geometry":{"coordinates":[6.048972,43.126873],"type":"Point"},"properties":{"description":"","id":"CRTNOS","name":"Terre Noire","wheelchair_boarding":"available"},"type":"Feature"},{"geometry":{"coordinates":[6.135113,43.120358],"type":"Point"},"properties":{"description":"","id":"HYBIGS","name":"Bigaradiers","wheelchair_boarding":"available"},"type":"Feature"},{"geometry":{"coordinates":[5.845323,43.140108],"type":"Point"},"properties":{"description":"","id":"OLEPRE","name":"Ecoles","wheelchair_boarding":"available"},"type":"Feature"},{"geometry":{"coordinates":[6.101926,43.163673],"type":"Point"},"properties":{"description":"","id":"CRLAMO","name":"M. Lambert","wheelchair_boarding":"available"},"type":"Feature"},{"geometry":{"coordinates":[5.931448,43.129663],"type":"Point"},"properties":{"description":"","id":"TOLICN","name":"Les Lices","wheelchair_boarding":"available"},"type":"Feature"},{"geometry":{"coordinates":[5.877713,43.111767],"type":"Point"},"properties":{"description":"","id":"SEGVEO","name":"Gai Versant","wheelchair_boarding":"available"},"type":"Feature"},{"geometry":{"coordinates":[5.883626,43.101108],"type":"Point"},"properties":{"description":"","id":"SECENS","name":"Seyne Centre","wheelchair_boarding":"available"},"type":"Feature"},{"geometry":{"coordinates":[5.92055,43.170438],"type":"Point"},"properties":{"description":"","id":"REMALO","name":"Malvallon","wheelchair_boarding":"available"},"type":"Feature"},{"geometry":{"coordinates":[5.810059,43.118558],"type":"Point"},"properties":{"description":"","id":"SAGEMS","name":"Les Gémeaux","wheelchair_boarding":"available"},"type":"Feature"},{"geometry":{"coordinates":[6.146954,43.058085],"type":"Point"},"properties":{"description":"","id":"HYTHAE","name":"Thalasso","wheelchair_boarding":"available"},"type":"Feature"},{"geometry":{"coordinates":[5.906942,43.115094],"type":"Point"},"properties":{"description":"","id":"BNMI3S","name":"Milhaud 3","wheelchair_boarding":"available"},"type":"Feature"},{"geometry":{"coordinates":[6.145904,43.04399],"type":"Point"},"properties":{"description":"","id":"HYPOUE","name":"Pousset","wheelchair_boarding":"available"},"type":"Feature"},{"geometry":{"coordinates":[5.969708,43.151006],"type":"Point"},"properties":{"description":"","id":"TOUBAN","name":"Uba (Favières)","wheelchair_boarding":"available"},"type":"Feature"},{"geometry":{"coordinates":[6.078623,43.08845],"type":"Point"},"properties":{"description":"","id":"CAPPSE","name":"Pins Penchés 2","wheelchair_boarding":"available"},"type":"Feature"},{"geometry":{"coordinates":[5.90293,43.128723],"type":"Point"},"properties":{"description":"","id":"TOBSTS","name":"Brosset","wheelchair_boarding":"available"},"type":"Feature"},{"geometry":{"coordinates":[5.848061,43.090801],"type":"Point"},"properties":{"description":"","id":"SIAUDS","name":"Audibert","wheelchair_boarding":"available"},"type":"Feature"},{"geometry":{"coordinates":[5.946893,43.119261],"type":"Point"},"properties":{"description":"","id":"TOFOUE","name":"Fourrière","wheelchair_boarding":"available"},"type":"Feature"},{"geometry":{"coordinates":[5.976719,43.110158],"type":"Point"},"properties":{"description":"","id":"TOMAIN","name":"Maison Blanche","wheelchair_boarding":"available"},"type":"Feature"},{"geometry":{"coordinates":[5.918541,43.125436],"type":"Point"},"properties":{"description":"","id":"BNJAUS","name":"Jauréguiberry 1","wheelchair_boarding":"available"},"type":"Feature"},{"geometry":{"coordinates":[6.048355,43.108072],"type":"Point"},"properties":{"description":"","id":"CADILS","name":"Diligence","wheelchair_boarding":"available"},"type":"Feature"},{"geometry":{"coordinates":[5.888261,43.097391],"type":"Point"},"properties":{"description":"","id":"SEANTE","name":"St Antoine","wheelchair_boarding":"available"},"type":"Feature"},{"geometry":{"coordinates":[5.845404,43.132273],"type":"Point"},"properties":{"description":"","id":"OLBAUE","name":"La Baume","wheelchair_boarding":"available"},"type":"Feature"},{"geometry":{"coordinates":[5.961131,43.131162],"type":"Point"},"properties":{"description":"","id":"TOCHEN","name":"Chenier","wheelchair_boarding":"available"},"type":"Feature"},{"geometry":{"coordinates":[5.9364,43.165344],"type":"Point"},"properties":{"description":"","id":"TORIPN","name":"Ripelle","wheelchair_boarding":"available"},"type":"Feature"},{"geometry":{"coordinates":[5.861053,43.088598],"type":"Point"},"properties":{"description":"","id":"SEPHAN","name":"Phar 83","wheelchair_boarding":"available"},"type":"Feature"},{"geometry":{"coordinates":[6.094083,43.163672],"type":"Point"},"properties":{"description":"","id":"CRGEN2","name":"Genévriers 2","wheelchair_boarding":"available"},"type":"Feature"},{"geometry":{"coordinates":[5.930611,43.125204],"type":"Point"},"properties":{"description":"","id":"TOLIBS","name":"Liberté","wheelchair_boarding":"available"},"type":"Feature"},{"geometry":{"coordinates":[5.922558,43.125914],"type":"Point"},"properties":{"description":"","id":"TOPOCS","name":"Porte Castigneau","wheelchair_boarding":"available"},"type":"Feature"},{"geometry":{"coordinates":[5.926476,43.162951],"type":"Point"},"properties":{"description":"","id":"TOPDAS","name":"Pont de Dardennes","wheelchair_boarding":"available"},"type":"Feature"},{"geometry":{"coordinates":[5.847245,43.094968],"type":"Point"},"properties":{"description":"","id":"SICFOO","name":"Chemin du Fort","wheelchair_boarding":"available"},"type":"Feature"},{"geometry":{"coordinates":[5.91034,43.120224],"type":"Point"},"properties":{"description":"","id":"BNESNS","name":"ESNA","wheelchair_boarding":"available"},"type":"Feature"},{"geometry":{"coordinates":[5.811955,43.082969],"type":"Point"},"properties":{"description":"","id":"SIMALO","name":"Malogineste","wheelchair_boarding":"available"},"type":"Feature"},{"geometry":{"coordinates":[5.904168,43.148068],"type":"Point"},"properties":{"description":"","id":"TOBZUN","name":"Bazus","wheelchair_boarding":"available"},"type":"Feature"},{"geometry":{"coordinates":[6.154925,43.13151],"type":"Point"},"properties":{"description":"","id":"HYGOLE","name":"Golf Hôtel","wheelchair_boarding":"available"},"type":"Feature"},{"geometry":{"coordinates":[5.91318,43.142659],"type":"Point"},"properties":{"description":"","id":"TOMEAE","name":"Mont des Eaux","wheelchair_boarding":"available"},"type":"Feature"},{"geometry":{"coordinates":[5.848578,43.137955],"type":"Point"},"properties":{"description":"","id":"OLRNAS","name":"Rue Nationale","wheelchair_boarding":"available"},"type":"Feature"},{"geometry":{"coordinates":[6.154136,43.123558],"type":"Point"},"properties":{"description":"","id":"HYPERO","name":"Père Eternel","wheelchair_boarding":"available"},"type":"Feature"},{"geometry":{"coordinates":[5.823878,43.112827],"type":"Point"},"properties":{"description":"","id":"SIEHAN","name":"Estève Haut","wheelchair_boarding":"available"},"type":"Feature"},{"geometry":{"coordinates":[5.897468,43.144359],"type":"Point"},"properties":{"description":"","id":"TOPIAT","name":"Pins d'Alep","wheelchair_boarding":"available"},"type":"Feature"},{"geometry":{"coordinates":[6.123143,43.115105],"type":"Point"},"properties":{"description":"","id":"HYCSME","name":"Clinique Ste Marguerite","wheelchair_boarding":"available"},"type":"Feature"},{"geometry":{"coordinates":[5.980959,43.116519],"type":"Point"},"properties":{"description":"","id":"TOAMEE","name":"Ameniers","wheelchair_boarding":"available"},"type":"Feature"},{"geometry":{"coordinates":[5.844448,43.093438],"type":"Point"},"properties":{"description":"","id":"SISVEE","name":"Stade du Verger","wheelchair_boarding":"available"},"type":"Feature"},{"geometry":{"coordinates":[6.010033,43.120223],"type":"Point"},"properties":{"description":"","id":"GAGYNN","name":"Gymnase/Gare","wheelchair_boarding":"available"},"type":"Feature"},{"geometry":{"coordinates":[5.859339,43.088652],"type":"Point"},"properties":{"description":"","id":"SEPARS","name":"Paradis (La Seyne)","wheelchair_boarding":"available"},"type":"Feature"},{"geometry":{"coordinates":[6.093403,43.16935],"type":"Point"},"properties":{"description":"","id":"CRPINN","name":"Pinedou","wheelchair_boarding":"available"},"type":"Feature"},{"geometry":{"coordinates":[6.013258,43.114502],"type":"Point"},"properties":{"description":"","id":"GAMUNO","name":"Municipaux","wheelchair_boarding":"available"},"type":"Feature"},{"geometry":{"coordinates":[5.913048,43.142718],"type":"Point"},"properties":{"description":"","id":"TOMEAO","name":"Mont des Eaux","wheelchair_boarding":"available"},"type":"Feature"},{"geometry":{"coordinates":[6.155465,43.115043],"type":"Point"},"properties":{"description":"","id":"HYPDMN","name":"Pierre du Moulin","wheelchair_boarding":"available"},"type":"Feature"},{"geometry":{"coordinates":[6.147224,43.124495],"type":"Point"},"properties":{"description":"","id":"HYPVDE","name":"Poste du Vdr","wheelchair_boarding":"available"},"type":"Feature"},{"geometry":{"coordinates":[5.90117,43.134955],"type":"Point"},"properties":{"description":"","id":"TOARES","name":"Arènes","wheelchair_boarding":"available"},"type":"Feature"},{"geometry":{"coordinates":[5.853758,43.104029],"type":"Point"},"properties":{"description":"","id":"SEESPE","name":"Espace Santé","wheelchair_boarding":"available"},"type":"Feature"},{"geometry":{"coordinates":[5.990401,43.138093],"type":"Point"},"properties":{"description":"","id":"VAPERS","name":"Péri","wheelchair_boarding":"available"},"type":"Feature"},{"geometry":{"coordinates":[6.016503,43.11011],"type":"Point"},"properties":{"description":"","id":"PRBATO","name":"La Bâtie","wheelchair_boarding":"available"},"type":"Feature"},{"geometry":{"coordinates":[5.914877,43.125588],"type":"Point"},"properties":{"description":"","id":"BNROCS","name":"Rocade","wheelchair_boarding":"available"},"type":"Feature"},{"geometry":{"coordinates":[5.883106,43.095438],"type":"Point"},"properties":{"description":"","id":"SECROO","name":"Croisement","wheelchair_boarding":"available"},"type":"Feature"},{"geometry":{"coordinates":[5.927898,43.163701],"type":"Point"},"properties":{"description":"","id":"TOHDAE","name":"Hameau Dardennes","wheelchair_boarding":"available"},"type":"Feature"},{"geometry":{"coordinates":[5.814334,43.10731],"type":"Point"},"properties":{"description":"","id":"SIRSOE","name":"Rayons de Soleil","wheelchair_boarding":"available"},"type":"Feature"},{"geometry":{"coordinates":[5.921302,43.170924],"type":"Point"},"properties":{"description":"","id":"REMALN","name":"Malvallon","wheelchair_boarding":"available"},"type":"Feature"},{"geometry":{"coordinates":[5.988865,43.107617],"type":"Point"},"properties":{"description":"","id":"GAPRON","name":"Terre Promise","wheelchair_boarding":"available"},"type":"Feature"},{"geometry":{"coordinates":[6.017215,43.129656],"type":"Point"},"properties":{"description":"","id":"GAAGOE","name":"Agora","wheelchair_boarding":"available"},"type":"Feature"},{"geometry":{"coordinates":[5.815331,43.120683],"type":"Point"},"properties":{"description":"","id":"SAESTS","name":"Les Estivales","wheelchair_boarding":"available"},"type":"Feature"},{"geometry":{"coordinates":[5.912738,43.128466],"type":"Point"},"properties":{"description":"","id":"TOPDSS","name":"Palais des Sports","wheelchair_boarding":"available"},"type":"Feature"},{"geometry":{"coordinates":[5.939713,43.113722],"type":"Point"},"properties":{"description":"","id":"TOCIRS","name":"Circaëte","wheelchair_boarding":"available"},"type":"Feature"},{"geometry":{"coordinates":[5.936565,43.12311],"type":"Point"},"properties":{"description":"","id":"TOBLA4","name":"Blache","wheelchair_boarding":"available"},"type":"Feature"},{"geometry":{"coordinates":[5.940613,43.119351],"type":"Point"},"properties":{"description":"","id":"TOIBIE","name":"Ibis","wheelchair_boarding":"available"},"type":"Feature"},{"geometry":{"coordinates":[6.003985,43.120852],"type":"Point"},"properties":{"description":"","id":"GAMCUN","name":"Marie Curie","wheelchair_boarding":"available"},"type":"Feature"},{"geometry":{"coordinates":[6.125323,43.080018],"type":"Point"},"properties":{"description":"","id":"HYALMN","name":"Almanarre","wheelchair_boarding":"available"},"type":"Feature"},{"geometry":{"coordinates":[5.915138,43.120424],"type":"Point"},"properties":{"description":"","id":"BNBACO","name":"Bassin Castigneau","wheelchair_boarding":"available"},"type":"Feature"},{"geometry":{"coordinates":[5.907706,43.15061],"type":"Point"},"properties":{"description":"","id":"TOIRCN","name":"Iris (Fours à Chaux)","wheelchair_boarding":"available"},"type":"Feature"},{"geometry":{"coordinates":[5.803066,43.076224],"type":"Point"},"properties":{"description":"","id":"SIEMBO","name":"Embarcadère (Brusc)","wheelchair_boarding":"available"},"type":"Feature"},{"geometry":{"coordinates":[5.932416,43.112361],"type":"Point"},"properties":{"description":"","id":"TOARTO","name":"Artillerie de Marine","wheelchair_boarding":"available"},"type":"Feature"},{"geometry":{"coordinates":[5.952895,43.118772],"type":"Point"},"properties":{"description":"","id":"TOEXOS","name":"Exocet","wheelchair_boarding":"available"},"type":"Feature"},{"geometry":{"coordinates":[5.912697,43.137423],"type":"Point"},"properties":{"description":"","id":"TOJQTN","name":"Jonquet","wheelchair_boarding":"available"},"type":"Feature"},{"geometry":{"coordinates":[5.966178,43.109215],"type":"Point"},"properties":{"description":"","id":"TOBTBN","name":"Batterie Basse","wheelchair_boarding":"available"},"type":"Feature"},{"geometry":{"coordinates":[5.951232,43.126549],"type":"Point"},"properties":{"description":"","id":"TOMCUN","name":"Marceau","wheelchair_boarding":"available"},"type":"Feature"},{"geometry":{"coordinates":[5.880273,43.122729],"type":"Point"},"properties":{"description":"","id":"OLCCOE","name":"Ctre Cial Ollioules","wheelchair_boarding":"available"},"type":"Feature"},{"geometry":{"coordinates":[6.009143,43.139008],"type":"Point"},"properties":{"description":"","id":"VAVAGS","name":"Valgora","wheelchair_boarding":"available"},"type":"Feature"},{"geometry":{"coordinates":[5.845608,43.126496],"type":"Point"},"properties":{"description":"","id":"OLCAGO","name":"Cagnarde","wheelchair_boarding":"available"},"type":"Feature"},{"geometry":{"coordinates":[5.87838,43.10954],"type":"Point"},"properties":{"description":"","id":"SEBREN","name":"Brégaillon","wheelchair_boarding":"available"},"type":"Feature"},{"geometry":{"coordinates":[5.890552,43.145389],"type":"Point"},"properties":{"description":"","id":"TOASPO","name":"Asphodèles","wheelchair_boarding":"available"},"type":"Feature"},{"geometry":{"coordinates":[5.882432,43.098955],"type":"Point"},"properties":{"description":"","id":"SELBAO","name":"La Barre (La Seyne)","wheelchair_boarding":"available"},"type":"Feature"},{"geometry":{"coordinates":[6.154719,43.030315],"type":"Point"},"properties":{"description":"","id":"HYESTN","name":"Estérel","wheelchair_boarding":"available"},"type":"Feature"},{"geometry":{"coordinates":[6.057155,43.13817],"type":"Point"},"properties":{"description":"","id":"CRCLAE","name":"Clairval","wheelchair_boarding":"available"},"type":"Feature"},{"geometry":{"coordinates":[5.929559,43.164191],"type":"Point"},"properties":{"description":"","id":"RECHAO","name":"Château","wheelchair_boarding":"available"},"type":"Feature"},{"geometry":{"coordinates":[5.897163,43.102089],"type":"Point"},"properties":{"description":"","id":"SERVEE","name":"Rouve","wheelchair_boarding":"available"},"type":"Feature"},{"geometry":{"coordinates":[6.149266,43.075392],"type":"Point"},"properties":{"description":"","id":"HYJBAN","name":"Jean Bart","wheelchair_boarding":"available"},"type":"Feature"},{"geometry":{"coordinates":[5.903975,43.139458],"type":"Point"},"properties":{"description":"","id":"TOGROO","name":"Groignard","wheelchair_boarding":"available"},"type":"Feature"},{"geometry":{"coordinates":[6.095555,43.115029],"type":"Point"},"properties":{"description":"","id":"HYLOUN","name":"Les Loubes","wheelchair_boarding":"available"},"type":"Feature"},{"geometry":{"coordinates":[5.875421,43.12979],"type":"Point"},"properties":{"description":"","id":"OLTASS","name":"Tassy","wheelchair_boarding":"available"},"type":"Feature"},{"geometry":{"coordinates":[6.149127,43.126568],"type":"Point"},"properties":{"description":"","id":"HYMATN","name":"Mataffe","wheelchair_boarding":"available"},"type":"Feature"},{"geometry":{"coordinates":[5.917372,43.141076],"type":"Point"},"properties":{"description":"","id":"TOJACN","name":"Jacquemin","wheelchair_boarding":"available"},"type":"Feature"},{"geometry":{"coordinates":[5.860166,43.136769],"type":"Point"},"properties":{"description":"","id":"OLVIOE","name":"Violettes","wheelchair_boarding":"available"},"type":"Feature"},{"geometry":{"coordinates":[5.907725,43.143284],"type":"Point"},"properties":{"description":"","id":"TORIGE","name":"Rigoumel","wheelchair_boarding":"available"},"type":"Feature"},{"geometry":{"coordinates":[6.004834,43.122608],"type":"Point"},"properties":{"description":"","id":"GADAUE","name":"Daudet (La Garde)","wheelchair_boarding":"available"},"type":"Feature"},{"geometry":{"coordinates":[5.999053,43.119012],"type":"Point"},"properties":{"description":"","id":"GABRAO","name":"Brassens","wheelchair_boarding":"available"},"type":"Feature"},{"geometry":{"coordinates":[5.812564,43.110487],"type":"Point"},"properties":{"description":"","id":"SISBAO","name":"Square des Bains","wheelchair_boarding":"available"},"type":"Feature"},{"geometry":{"coordinates":[5.965752,43.128585],"type":"Point"},"properties":{"description":"","id":"TOBRUN","name":"Brunet","wheelchair_boarding":"available"},"type":"Feature"},{"geometry":{"coordinates":[6.121849,43.120286],"type":"Point"},"properties":{"description":"","id":"HYIDON","name":"Îles d'Or","wheelchair_boarding":"available"},"type":"Feature"},{"geometry":{"coordinates":[5.936906,43.134423],"type":"Point"},"properties":{"description":"","id":"TOCPSS","name":"Chapelle (Siblas)","wheelchair_boarding":"available"},"type":"Feature"},{"geometry":{"coordinates":[5.973741,43.156339],"type":"Point"},"properties":{"description":"","id":"VACOUE","name":"Coudon 2","wheelchair_boarding":"available"},"type":"Feature"},{"geometry":{"coordinates":[6.13315,43.120911],"type":"Point"},"properties":{"description":"","id":"HYDENN","name":"Hyères Centre (Denis)","wheelchair_boarding":"available"},"type":"Feature"},{"geometry":{"coordinates":[5.911917,43.130958],"type":"Point"},"properties":{"description":"","id":"TOPARO","name":"Paris","wheelchair_boarding":"available"},"type":"Feature"},{"geometry":{"coordinates":[5.962054,43.108286],"type":"Point"},"properties":{"description":"","id":"TORORS","name":"Rochers (Petit Bois)","wheelchair_boarding":"available"},"type":"Feature"},{"geometry":{"coordinates":[5.823465,43.101046],"type":"Point"},"properties":{"description":"","id":"SICODS","name":"Coudoulière","wheelchair_boarding":"available"},"type":"Feature"},{"geometry":{"coordinates":[6.101734,43.167866],"type":"Point"},"properties":{"description":"","id":"CRAMAS","name":"Les Amandiers","wheelchair_boarding":"available"},"type":"Feature"},{"geometry":{"coordinates":[6.155809,43.128967],"type":"Point"},"properties":{"description":"","id":"HYMO1N","name":"Moulin 1er","wheelchair_boarding":"available"},"type":"Feature"},{"geometry":{"coordinates":[5.930388,43.168822],"type":"Point"},"properties":{"description":"","id":"RECOQS","name":"Coquelicot","wheelchair_boarding":"available"},"type":"Feature"},{"geometry":{"coordinates":[5.888725,43.098791],"type":"Point"},"properties":{"description":"","id":"SECRMS","name":"Carmille","wheelchair_boarding":"available"},"type":"Feature"},{"geometry":{"coordinates":[6.046788,43.140648],"type":"Point"},"properties":{"description":"","id":"CRROSS","name":"Rosacrau","wheelchair_boarding":"available"},"type":"Feature"},{"geometry":{"coordinates":[5.891223,43.143926],"type":"Point"},"properties":{"description":"","id":"TOADRE","name":"Audrain","wheelchair_boarding":"available"},"type":"Feature"},{"geometry":{"coordinates":[6.016831,43.106798],"type":"Point"},"properties":{"description":"","id":"PRROCN","name":"Roches Bleues","wheelchair_boarding":"available"},"type":"Feature"},{"geometry":{"coordinates":[5.908722,43.095043],"type":"Point"},"properties":{"description":"","id":"SEBALO","name":"Balaguier","wheelchair_boarding":"available"},"type":"Feature"},{"geometry":{"coordinates":[5.87053,43.109071],"type":"Point"},"properties":{"description":"","id":"SEHOPE","name":"Hôpital (La Seyne)","wheelchair_boarding":"available"},"type":"Feature"},{"geometry":{"coordinates":[5.910021,43.130494],"type":"Point"},"properties":{"description":"","id":"TOSREN","name":"Serre","wheelchair_boarding":"available"},"type":"Feature"},{"geometry":{"coordinates":[5.915075,43.153731],"type":"Point"},"properties":{"description":"","id":"TOPGAO","name":"Pont des Gaux","wheelchair_boarding":"available"},"type":"Feature"},{"geometry":{"coordinates":[5.911632,43.153111],"type":"Point"},"properties":{"description":"","id":"TOSCIN","name":"Sans Souci","wheelchair_boarding":"available"},"type":"Feature"},{"geometry":{"coordinates":[6.117038,43.10858],"type":"Point"},"properties":{"description":"","id":"HYETES","name":"Etendard","wheelchair_boarding":"available"},"type":"Feature"},{"geometry":{"coordinates":[5.989321,43.131295],"type":"Point"},"properties":{"description":"","id":"VADEBN","name":"Debussy","wheelchair_boarding":"available"},"type":"Feature"},{"geometry":{"coordinates":[5.912285,43.145897],"type":"Point"},"properties":{"description":"","id":"TOGUYO","name":"Guynemer","wheelchair_boarding":"available"},"type":"Feature"},{"geometry":{"coordinates":[6.028349,43.107239],"type":"Point"},"properties":{"description":"","id":"PR4SAS","name":"4 Saisons","wheelchair_boarding":"available"},"type":"Feature"},{"geometry":{"coordinates":[6.109855,43.114245],"type":"Point"},"properties":{"description":"","id":"HYSTJO","name":"St Jean (Hyères)","wheelchair_boarding":"available"},"type":"Feature"},{"geometry":{"coordinates":[5.996278,43.113064],"type":"Point"},"properties":{"description":"","id":"GAPOUN","name":"Pouverel","wheelchair_boarding":"available"},"type":"Feature"},{"geometry":{"coordinates":[5.896375,43.129932],"type":"Point"},"properties":{"description":"","id":"TOCMPS","name":"Ch. Mon Paradis","wheelchair_boarding":"available"},"type":"Feature"},{"geometry":{"coordinates":[5.939612,43.113022],"type":"Point"},"properties":{"description":"","id":"TOBZLS","name":"Bazeilles","wheelchair_boarding":"available"},"type":"Feature"},{"geometry":{"coordinates":[5.988325,43.141279],"type":"Point"},"properties":{"description":"","id":"VAVIOE","name":"Violettes (La Valette)","wheelchair_boarding":"available"},"type":"Feature"},{"geometry":{"coordinates":[5.806272,43.076611],"type":"Point"},"properties":{"description":"","id":"SIMAIS","name":"Le Mail","wheelchair_boarding":"available"},"type":"Feature"},{"geometry":{"coordinates":[6.035253,43.140681],"type":"Point"},"properties":{"description":"","id":"GAPATO","name":"Pôle d'Activité Toulon Est","wheelchair_boarding":"available"},"type":"Feature"},{"geometry":{"coordinates":[5.887992,43.128644],"type":"Point"},"properties":{"description":"","id":"TOCOES","name":"Covoiturage Escaillon","wheelchair_boarding":"available"},"type":"Feature"},{"geometry":{"coordinates":[6.026465,43.088399],"type":"Point"},"properties":{"description":"","id":"PRCORE","name":"Collet Redon","wheelchair_boarding":"available"},"type":"Feature"},{"geometry":{"coordinates":[6.021893,43.129248],"type":"Point"},"properties":{"description":"","id":"GALISE","name":"Liserons","wheelchair_boarding":"available"},"type":"Feature"},{"geometry":{"coordinates":[5.93843,43.119341],"type":"Point"},"properties":{"description":"","id":"TOROOE","name":"F. Roosevelt","wheelchair_boarding":"available"},"type":"Feature"},{"geometry":{"coordinates":[6.011009,43.146828],"type":"Point"},"properties":{"description":"","id":"VAPICO","name":"Picot","wheelchair_boarding":"available"},"type":"Feature"},{"geometry":{"coordinates":[6.144453,43.127563],"type":"Point"},"properties":{"description":"","id":"HYV19O","name":"VdR19","wheelchair_boarding":"available"},"type":"Feature"},{"geometry":{"coordinates":[5.940497,43.12208],"type":"Point"},"properties":{"description":"","id":"TOCMAN","name":"Champ de Mars","wheelchair_boarding":"available"},"type":"Feature"},{"geometry":{"coordinates":[5.888677,43.095067],"type":"Point"},"properties":{"description":"","id":"SEATHE","name":"Athéna","wheelchair_boarding":"available"},"type":"Feature"},{"geometry":{"coordinates":[5.868347,43.111603],"type":"Point"},"properties":{"description":"","id":"SESLAS","name":"St Laurent","wheelchair_boarding":"available"},"type":"Feature"},{"geometry":{"coordinates":[6.07767,43.118374],"type":"Point"},"properties":{"description":"","id":"CRHDUN","name":"Haute Durande","wheelchair_boarding":"available"},"type":"Feature"},{"geometry":{"coordinates":[5.96271,43.132301],"type":"Point"},"properties":{"description":"","id":"TOAMPS","name":"Ampère","wheelchair_boarding":"available"},"type":"Feature"},{"geometry":{"coordinates":[6.003778,43.145339],"type":"Point"},"properties":{"description":"","id":"VATORO","name":"Tortel","wheelchair_boarding":"available"},"type":"Feature"},{"geometry":{"coordinates":[6.193647,43.114083],"type":"Point"},"properties":{"description":"","id":"HYSBEN","name":"Simone Berriau","wheelchair_boarding":"available"},"type":"Feature"},{"geometry":{"coordinates":[5.947423,43.120738],"type":"Point"},"properties":{"description":"","id":"TOBOUO","name":"Bourgeois","wheelchair_boarding":"available"},"type":"Feature"},{"geometry":{"coordinates":[5.922782,43.123675],"type":"Point"},"properties":{"description":"","id":"BNLIGS","name":"Ligurienne","wheelchair_boarding":"available"},"type":"Feature"},{"geometry":{"coordinates":[5.936473,43.123224],"type":"Point"},"properties":{"description":"","id":"TOBLA5","name":"Blache","wheelchair_boarding":"available"},"type":"Feature"},{"geometry":{"coordinates":[5.989809,43.129352],"type":"Point"},"properties":{"description":"","id":"VALPVO","name":"Paul Valéry","wheelchair_boarding":"available"},"type":"Feature"},{"geometry":{"coordinates":[6.009975,43.122249],"type":"Point"},"properties":{"description":"","id":"GAPOSO","name":"Poste (La Garde)","wheelchair_boarding":"available"},"type":"Feature"},{"geometry":{"coordinates":[5.917718,43.158681],"type":"Point"},"properties":{"description":"","id":"TOCPMO","name":"Chapelle (des Moulins)","wheelchair_boarding":"available"},"type":"Feature"},{"geometry":{"coordinates":[5.910579,43.141321],"type":"Point"},"properties":{"description":"","id":"TOMUSE","name":"Muséum","wheelchair_boarding":"available"},"type":"Feature"},{"geometry":{"coordinates":[5.936661,43.13091],"type":"Point"},"properties":{"description":"","id":"TOSIBS","name":"Siblas","wheelchair_boarding":"available"},"type":"Feature"},{"geometry":{"coordinates":[5.907688,43.128235],"type":"Point"},"properties":{"description":"","id":"TOBRCN","name":"Bon Rencontre","wheelchair_boarding":"available"},"type":"Feature"},{"geometry":{"coordinates":[5.850084,43.109288],"type":"Point"},"properties":{"description":"","id":"SELERS","name":"Léry","wheelchair_boarding":"available"},"type":"Feature"},{"geometry":{"coordinates":[5.902797,43.127032],"type":"Point"},"properties":{"description":"","id":"TOSTBS","name":"Stade (Bon rencontre)","wheelchair_boarding":"available"},"type":"Feature"},{"geometry":{"coordinates":[6.010812,43.119778],"type":"Point"},"properties":{"description":"","id":"GASACO","name":"Stade (F.Accusano)","wheelchair_boarding":"available"},"type":"Feature"},{"geometry":{"coordinates":[6.013076,43.108194],"type":"Point"},"properties":{"description":"","id":"PRGRAN","name":"Gravettes","wheelchair_boarding":"available"},"type":"Feature"},{"geometry":{"coordinates":[5.867661,43.111835],"type":"Point"},"properties":{"description":"","id":"SESLAN","name":"St Laurent","wheelchair_boarding":"available"},"type":"Feature"},{"geometry":{"coordinates":[6.088084,43.098154],"type":"Point"},"properties":{"description":"","id":"CABASE","name":"Les Bastides","wheelchair_boarding":"available"},"type":"Feature"},{"geometry":{"coordinates":[5.955191,43.117727],"type":"Point"},"properties":{"description":"","id":"TOFRNS","name":"Florian","wheelchair_boarding":"available"},"type":"Feature"},{"geometry":{"coordinates":[6.05347,43.144974],"type":"Point"},"properties":{"description":"","id":"CRTOUN","name":"Les Tourraches","wheelchair_boarding":"available"},"type":"Feature"},{"geometry":{"coordinates":[5.945305,43.115692],"type":"Point"},"properties":{"description":"","id":"TOCHVO","name":"Chênes Verts","wheelchair_boarding":"available"},"type":"Feature"},{"geometry":{"coordinates":[6.073252,43.087145],"type":"Point"},"properties":{"description":"","id":"CAPENN","name":"Peno","wheelchair_boarding":"available"},"type":"Feature"},{"geometry":{"coordinates":[5.906762,43.121605],"type":"Point"},"properties":{"description":"","id":"BNRARE","name":"Restaurant Artillerie","wheelchair_boarding":"available"},"type":"Feature"},{"geometry":{"coordinates":[6.160229,43.089837],"type":"Point"},"properties":{"description":"","id":"HYAERE","name":"Aéroport","wheelchair_boarding":"available"},"type":"Feature"},{"geometry":{"coordinates":[5.894372,43.136427],"type":"Point"},"properties":{"description":"","id":"TOHLME","name":"HLM Mon Paradis","wheelchair_boarding":"available"},"type":"Feature"},{"geometry":{"coordinates":[5.87698,43.095109],"type":"Point"},"properties":{"description":"","id":"SESHOE","name":"St Honorat","wheelchair_boarding":"available"},"type":"Feature"},{"geometry":{"coordinates":[6.131487,43.096738],"type":"Point"},"properties":{"description":"","id":"HYNDAO","name":"Notre Dame","wheelchair_boarding":"available"},"type":"Feature"},{"geometry":{"coordinates":[6.025536,43.096849],"type":"Point"},"properties":{"description":"","id":"PRTRAE","name":"Traversier","wheelchair_boarding":"available"},"type":"Feature"},{"geometry":{"coordinates":[5.900674,43.135249],"type":"Point"},"properties":{"description":"","id":"TOAREN","name":"Arènes","wheelchair_boarding":"available"},"type":"Feature"},{"geometry":{"coordinates":[5.859952,43.136706],"type":"Point"},"properties":{"description":"","id":"OLVIOO","name":"Violettes","wheelchair_boarding":"available"},"type":"Feature"},{"geometry":{"coordinates":[6.155002,43.082031],"type":"Point"},"properties":{"description":"","id":"HYJDAS","name":"Jean d'Agrève","wheelchair_boarding":"available"},"type":"Feature"},{"geometry":{"coordinates":[5.960259,43.124883],"type":"Point"},"properties":{"description":"","id":"TOASSN","name":"Assomption","wheelchair_boarding":"available"},"type":"Feature"},{"geometry":{"coordinates":[5.858399,43.113981],"type":"Point"},"properties":{"description":"","id":"SEEURO","name":"Europe","wheelchair_boarding":"available"},"type":"Feature"},{"geometry":{"coordinates":[5.88195,43.082876],"type":"Point"},"properties":{"description":"","id":"SELOUE","name":"Pas du Loup","wheelchair_boarding":"available"},"type":"Feature"},{"geometry":{"coordinates":[5.862568,43.138361],"type":"Point"},"properties":{"description":"","id":"OLSEIN","name":"Seigneur","wheelchair_boarding":"available"},"type":"Feature"},{"geometry":{"coordinates":[5.928035,43.122821],"type":"Point"},"properties":{"description":"","id":"BNPOPN","name":"Porte Principale","wheelchair_boarding":"available"},"type":"Feature"},{"geometry":{"coordinates":[5.897702,43.09907],"type":"Point"},"properties":{"description":"","id":"SEPTNE","name":"Platanes","wheelchair_boarding":"available"},"type":"Feature"},{"geometry":{"coordinates":[5.809496,43.118506],"type":"Point"},"properties":{"description":"","id":"SAGEMN","name":"Les Gémeaux","wheelchair_boarding":"available"},"type":"Feature"},{"geometry":{"coordinates":[5.935346,43.124257],"type":"Point"},"properties":{"description":"","id":"TOSTRE","name":"Strasbourg","wheelchair_boarding":"available"},"type":"Feature"},{"geometry":{"coordinates":[5.842441,43.117464],"type":"Point"},"properties":{"description":"","id":"SIEURN","name":"L'Europe","wheelchair_boarding":"available"},"type":"Feature"},{"geometry":{"coordinates":[6.121798,43.086166],"type":"Point"},"properties":{"description":"","id":"HYFDHO","name":"Font des Horts","wheelchair_boarding":"available"},"type":"Feature"},{"geometry":{"coordinates":[5.922289,43.127594],"type":"Point"},"properties":{"description":"","id":"TOLYAO","name":"Lyautey","wheelchair_boarding":"available"},"type":"Feature"},{"geometry":{"coordinates":[5.939018,43.121974],"type":"Point"},"properties":{"description":"","id":"TOCPIO","name":"Campus Porte d'Italie","wheelchair_boarding":"available"},"type":"Feature"},{"geometry":{"coordinates":[6.067561,43.146032],"type":"Point"},"properties":{"description":"","id":"CRGARO","name":"La Gare (La Crau)","wheelchair_boarding":"available"},"type":"Feature"},{"geometry":{"coordinates":[5.894245,43.081673],"type":"Point"},"properties":{"description":"","id":"SERIVO","name":"Rives d'Or","wheelchair_boarding":"available"},"type":"Feature"},{"geometry":{"coordinates":[5.875324,43.074715],"type":"Point"},"properties":{"description":"","id":"SEVRNS","name":"La Verne","wheelchair_boarding":"available"},"type":"Feature"},{"geometry":{"coordinates":[5.882406,43.128227],"type":"Point"},"properties":{"description":"","id":"TORN8N","name":"RN8","wheelchair_boarding":"available"},"type":"Feature"},{"geometry":{"coordinates":[5.969984,43.129949],"type":"Point"},"properties":{"description":"","id":"TOELPN","name":"Elisapivote","wheelchair_boarding":"available"},"type":"Feature"},{"geometry":{"coordinates":[6.037933,43.139278],"type":"Point"},"properties":{"description":"","id":"GAC29N","name":"CD 29","wheelchair_boarding":"available"},"type":"Feature"},{"geometry":{"coordinates":[5.939675,43.118974],"type":"Point"},"properties":{"description":"","id":"TOGOEE","name":"Goéland","wheelchair_boarding":"available"},"type":"Feature"},{"geometry":{"coordinates":[6.092741,43.128589],"type":"Point"},"properties":{"description":"","id":"HYCHRN","name":"Chrétienne","wheelchair_boarding":"available"},"type":"Feature"},{"geometry":{"coordinates":[6.1069,43.040268],"type":"Point"},"properties":{"description":"","id":"HYCANN","name":"Castéou Négré","wheelchair_boarding":"available"},"type":"Feature"},{"geometry":{"coordinates":[5.857299,43.07358],"type":"Point"},"properties":{"description":"","id":"SEJANE","name":"Janas","wheelchair_boarding":"available"},"type":"Feature"},{"geometry":{"coordinates":[6.153959,43.081361],"type":"Point"},"properties":{"description":"","id":"HYPLGE","name":"Port La Gavine","wheelchair_boarding":"available"},"type":"Feature"},{"geometry":{"coordinates":[6.156888,43.083128],"type":"Point"},"properties":{"description":"","id":"HYYACS","name":"Yacht Club","wheelchair_boarding":"available"},"type":"Feature"},{"geometry":{"coordinates":[5.922154,43.127491],"type":"Point"},"properties":{"description":"","id":"TOOBSS","name":"Observatoire","wheelchair_boarding":"available"},"type":"Feature"},{"geometry":{"coordinates":[6.09039,43.088797],"type":"Point"},"properties":{"description":"","id":"CAVALO","name":"Valérane","wheelchair_boarding":"available"},"type":"Feature"},{"geometry":{"coordinates":[5.898817,43.096713],"type":"Point"},"properties":{"description":"","id":"SECOTE","name":"Collines Tamaris","wheelchair_boarding":"available"},"type":"Feature"},{"geometry":{"coordinates":[5.998179,43.142409],"type":"Point"},"properties":{"description":"","id":"VACAON","name":"Caounes","wheelchair_boarding":"available"},"type":"Feature"},{"geometry":{"coordinates":[5.960523,43.115698],"type":"Point"},"properties":{"description":"","id":"TOBEGO","name":"Béguin","wheelchair_boarding":"available"},"type":"Feature"},{"geometry":{"coordinates":[6.146058,43.127153],"type":"Point"},"properties":{"description":"","id":"HYVPHE","name":"VdR pharmacie","wheelchair_boarding":"available"},"type":"Feature"},{"geometry":{"coordinates":[6.175617,43.105817],"type":"Point"},"properties":{"description":"","id":"HYAYGO","name":"Ayguade","wheelchair_boarding":"available"},"type":"Feature"},{"geometry":{"coordinates":[6.146578,43.048308],"type":"Point"},"properties":{"description":"","id":"HYBERE","name":"Bergerie","wheelchair_boarding":"available"},"type":"Feature"},{"geometry":{"coordinates":[5.941181,43.120398],"type":"Point"},"properties":{"description":"","id":"TOPIXO","name":"Pie X","wheelchair_boarding":"available"},"type":"Feature"},{"geometry":{"coordinates":[5.815648,43.076492],"type":"Point"},"properties":{"description":"","id":"SIROBO","name":"Roches Blanches","wheelchair_boarding":"available"},"type":"Feature"},{"geometry":{"coordinates":[5.918905,43.159512],"type":"Point"},"properties":{"description":"","id":"TOSPIN","name":"St Pierre des Moulins","wheelchair_boarding":"available"},"type":"Feature"},{"geometry":{"coordinates":[5.809855,43.078933],"type":"Point"},"properties":{"description":"","id":"SIFAIE","name":"Faïsses","wheelchair_boarding":"available"},"type":"Feature"},{"geometry":{"coordinates":[6.147124,43.124443],"type":"Point"},"properties":{"description":"","id":"HYPVDO","name":"Poste du Vdr","wheelchair_boarding":"available"},"type":"Feature"},{"geometry":{"coordinates":[5.819301,43.103604],"type":"Point"},"properties":{"description":"","id":"SIBUCS","name":"Bucarin","wheelchair_boarding":"available"},"type":"Feature"},{"geometry":{"coordinates":[5.875921,43.077191],"type":"Point"},"properties":{"description":"","id":"SE2CHO","name":"2 Chênes","wheelchair_boarding":"available"},"type":"Feature"},{"geometry":{"coordinates":[6.072293,43.098791],"type":"Point"},"properties":{"description":"","id":"CAVRON","name":"Vieux Roubauds","wheelchair_boarding":"available"},"type":"Feature"},{"geometry":{"coordinates":[5.842356,43.115486],"type":"Point"},"properties":{"description":"","id":"SIAVEE","name":"Avenir","wheelchair_boarding":"available"},"type":"Feature"},{"geometry":{"coordinates":[5.826755,43.105646],"type":"Point"},"properties":{"description":"","id":"SIRAIE","name":"Raimu (Six Fours)","wheelchair_boarding":"available"},"type":"Feature"},{"geometry":{"coordinates":[5.825467,43.122577],"type":"Point"},"properties":{"description":"","id":"OLGARS","name":"Gare (Ollioules/Sanary)","wheelchair_boarding":"available"},"type":"Feature"},{"geometry":{"coordinates":[5.881414,43.088866],"type":"Point"},"properties":{"description":"","id":"SEIVAO","name":"Ivaldi","wheelchair_boarding":"available"},"type":"Feature"},{"geometry":{"coordinates":[5.948548,43.162629],"type":"Point"},"properties":{"description":"","id":"TORFAN","name":"Résidence Favières","wheelchair_boarding":"available"},"type":"Feature"},{"geometry":{"coordinates":[6.020791,43.13309],"type":"Point"},"properties":{"description":"","id":"GARESN","name":"Résédas","wheelchair_boarding":"available"},"type":"Feature"},{"geometry":{"coordinates":[5.930658,43.12118],"type":"Point"},"properties":{"description":"","id":"TOSTMN","name":"Station Maritime","wheelchair_boarding":"available"},"type":"Feature"},{"geometry":{"coordinates":[5.878265,43.116508],"type":"Point"},"properties":{"description":"","id":"SEGARS","name":"Gare (Seyne/Six Fours)","wheelchair_boarding":"available"},"type":"Feature"},{"geometry":{"coordinates":[6.071771,43.151969],"type":"Point"},"properties":{"description":"","id":"CRCIME","name":"Cimetière (La Crau)","wheelchair_boarding":"available"},"type":"Feature"},{"geometry":{"coordinates":[5.819269,43.081405],"type":"Point"},"properties":{"description":"","id":"SICMAO","name":"Ch. Malogineste","wheelchair_boarding":"available"},"type":"Feature"},{"geometry":{"coordinates":[5.880325,43.128444],"type":"Point"},"properties":{"description":"","id":"TOPON3","name":"Portes d'Ollioules et de Toulon","wheelchair_boarding":"available"},"type":"Feature"},{"geometry":{"coordinates":[6.070914,43.091251],"type":"Point"},"properties":{"description":"","id":"CAEXUE","name":"Maternelle St Exupéry","wheelchair_boarding":"available"},"type":"Feature"},{"geometry":{"coordinates":[6.067986,43.146243],"type":"Point"},"properties":{"description":"","id":"CRGARE","name":"La Gare (La Crau)","wheelchair_boarding":"available"},"type":"Feature"},{"geometry":{"coordinates":[5.941567,43.126937],"type":"Point"},"properties":{"description":"","id":"TOLAPS","name":"Laporterie","wheelchair_boarding":"available"},"type":"Feature"},{"geometry":{"coordinates":[5.862335,43.111199],"type":"Point"},"properties":{"description":"","id":"SEPELE","name":"Pêle Mêle","wheelchair_boarding":"available"},"type":"Feature"},{"geometry":{"coordinates":[5.850754,43.097153],"type":"Point"},"properties":{"description":"","id":"SIDENE","name":"Denans","wheelchair_boarding":"available"},"type":"Feature"},{"geometry":{"coordinates":[5.895054,43.098301],"type":"Point"},"properties":{"description":"","id":"SEETON","name":"Etourneau","wheelchair_boarding":"available"},"type":"Feature"},{"geometry":{"coordinates":[6.014988,43.127221],"type":"Point"},"properties":{"description":"","id":"GACESO","name":"Collège Cousteau","wheelchair_boarding":"available"},"type":"Feature"},{"geometry":{"coordinates":[5.807901,43.0854],"type":"Point"},"properties":{"description":"","id":"SIMARE","name":"Marestan","wheelchair_boarding":"available"},"type":"Feature"},{"geometry":{"coordinates":[6.108954,43.08485],"type":"Point"},"properties":{"description":"","id":"HYMOIS","name":"Mont des Oiseaux (Hyères)","wheelchair_boarding":"available"},"type":"Feature"},{"geometry":{"coordinates":[6.146026,43.116631],"type":"Point"},"properties":{"description":"","id":"HYSKPO","name":"Skate Park","wheelchair_boarding":"available"},"type":"Feature"},{"geometry":{"coordinates":[5.847051,43.135525],"type":"Point"},"properties":{"description":"","id":"OLRESE","name":"Résistance","wheelchair_boarding":"available"},"type":"Feature"},{"geometry":{"coordinates":[5.928707,43.165785],"type":"Point"},"properties":{"description":"","id":"REVALN","name":"Val D'Ardènes","wheelchair_boarding":"available"},"type":"Feature"},{"geometry":{"coordinates":[5.923444,43.160764],"type":"Point"},"properties":{"description":"","id":"TOOREE","name":"Oliviers (Revest)","wheelchair_boarding":"available"},"type":"Feature"},{"geometry":{"coordinates":[6.016654,43.110402],"type":"Point"},"properties":{"description":"","id":"PRBATE","name":"La Bâtie","wheelchair_boarding":"available"},"type":"Feature"},{"geometry":{"coordinates":[6.131661,43.096921],"type":"Point"},"properties":{"description":"","id":"HYNDAE","name":"Notre Dame","wheelchair_boarding":"available"},"type":"Feature"},{"geometry":{"coordinates":[5.865452,43.112137],"type":"Point"},"properties":{"description":"","id":"SEBTON","name":"Bartolini","wheelchair_boarding":"available"},"type":"Feature"},{"geometry":{"coordinates":[6.182995,43.140732],"type":"Point"},"properties":{"description":"","id":"HYMA3E","name":"Chemin des Maures 3","wheelchair_boarding":"available"},"type":"Feature"},{"geometry":{"coordinates":[6.019715,43.134955],"type":"Point"},"properties":{"description":"","id":"GAUNSN","name":"Université Sud","wheelchair_boarding":"available"},"type":"Feature"},{"geometry":{"coordinates":[6.073035,43.119478],"type":"Point"},"properties":{"description":"","id":"CRLMOE","name":"La Moutonne","wheelchair_boarding":"available"},"type":"Feature"},{"geometry":{"coordinates":[5.870698,43.137759],"type":"Point"},"properties":{"description":"","id":"OLCLIS","name":"Clinique (St Martin)","wheelchair_boarding":"available"},"type":"Feature"},{"geometry":{"coordinates":[5.81168,43.117584],"type":"Point"},"properties":{"description":"","id":"SIRPPT","name":"Reppe","wheelchair_boarding":"available"},"type":"Feature"},{"geometry":{"coordinates":[5.934583,43.113071],"type":"Point"},"properties":{"description":"","id":"TOPPLE","name":"Port de Plaisance","wheelchair_boarding":"available"},"type":"Feature"},{"geometry":{"coordinates":[5.847381,43.094904],"type":"Point"},"properties":{"description":"","id":"SICFOE","name":"Chemin du Fort","wheelchair_boarding":"available"},"type":"Feature"},{"geometry":{"coordinates":[5.890565,43.14553],"type":"Point"},"properties":{"description":"","id":"TOASPE","name":"Asphodèles","wheelchair_boarding":"available"},"type":"Feature"},{"geometry":{"coordinates":[6.131846,43.119745],"type":"Point"},"properties":{"description":"","id":"HYCJOO","name":"Hyères Centre (Joffre)","wheelchair_boarding":"available"},"type":"Feature"},{"geometry":{"coordinates":[5.828134,43.108623],"type":"Point"},"properties":{"description":"","id":"SIROPN","name":"Rocade des Playes","wheelchair_boarding":"available"},"type":"Feature"},{"geometry":{"coordinates":[5.925334,43.077956],"type":"Point"},"properties":{"description":"","id":"SMMIMN","name":"Mimosas","wheelchair_boarding":"available"},"type":"Feature"},{"geometry":{"coordinates":[5.951434,43.131968],"type":"Point"},"properties":{"description":"","id":"TOMIS1","name":"Notre Dame des Missions 1","wheelchair_boarding":"available"},"type":"Feature"},{"geometry":{"coordinates":[5.970154,43.125928],"type":"Point"},"properties":{"description":"","id":"TOFOPS","name":"Font Pré","wheelchair_boarding":"available"},"type":"Feature"},{"geometry":{"coordinates":[6.168884,43.110586],"type":"Point"},"properties":{"description":"","id":"HYFONS","name":"Fontètes","wheelchair_boarding":"available"},"type":"Feature"},{"geometry":{"coordinates":[5.925455,43.077907],"type":"Point"},"properties":{"description":"","id":"SMMIMS","name":"Mimosas","wheelchair_boarding":"available"},"type":"Feature"},{"geometry":{"coordinates":[6.035401,43.134843],"type":"Point"},"properties":{"description":"","id":"GAAPRN","name":"Auberge Provençale","wheelchair_boarding":"available"},"type":"Feature"},{"geometry":{"coordinates":[5.98334,43.145138],"type":"Point"},"properties":{"description":"","id":"VAFJEN","name":"Fontaine Jeanne","wheelchair_boarding":"available"},"type":"Feature"},{"geometry":{"coordinates":[5.885176,43.132762],"type":"Point"},"properties":{"description":"","id":"TOIRBO","name":"Iris (La Beaucaire)","wheelchair_boarding":"available"},"type":"Feature"},{"geometry":{"coordinates":[5.905785,43.127785],"type":"Point"},"properties":{"description":"","id":"TOBRE4","name":"Bon Rencontre","wheelchair_boarding":"available"},"type":"Feature"},{"geometry":{"coordinates":[6.076918,43.135723],"type":"Point"},"properties":{"description":"","id":"CRGOFO","name":"Goys  Fourniers","wheelchair_boarding":"available"},"type":"Feature"},{"geometry":{"coordinates":[6.039782,43.146065],"type":"Point"},"properties":{"description":"","id":"GAZITO","name":"ZI Toulon Est","wheelchair_boarding":"available"},"type":"Feature"},{"geometry":{"coordinates":[5.956631,43.116376],"type":"Point"},"properties":{"description":"","id":"TOCHSO","name":"Chartreuse","wheelchair_boarding":"available"},"type":"Feature"},{"geometry":{"coordinates":[5.87783,43.116847],"type":"Point"},"properties":{"description":"","id":"SEGARO","name":"Gare (Seyne/Six Fours)","wheelchair_boarding":"available"},"type":"Feature"},{"geometry":{"coordinates":[5.979094,43.136118],"type":"Point"},"properties":{"description":"","id":"VAMIRE","name":"Mirasouléou","wheelchair_boarding":"available"},"type":"Feature"},{"geometry":{"coordinates":[6.05462,43.103983],"type":"Point"},"properties":{"description":"","id":"CACOLN","name":"Colle Noire (Carqueiranne)","wheelchair_boarding":"available"},"type":"Feature"},{"geometry":{"coordinates":[5.929262,43.128006],"type":"Point"},"properties":{"description":"","id":"TOGARN","name":"Gare (Toulon)","wheelchair_boarding":"available"},"type":"Feature"},{"geometry":{"coordinates":[6.128374,43.105789],"type":"Point"},"properties":{"description":"","id":"HYES3E","name":"Espace 3000","wheelchair_boarding":"available"},"type":"Feature"},{"geometry":{"coordinates":[5.931926,43.110237],"type":"Point"},"properties":{"description":"","id":"TOGRIO","name":"Grignan","wheelchair_boarding":"available"},"type":"Feature"},{"geometry":{"coordinates":[5.989299,43.128895],"type":"Point"},"properties":{"description":"","id":"VAVALS","name":"Valéry","wheelchair_boarding":"available"},"type":"Feature"},{"geometry":{"coordinates":[5.964431,43.134106],"type":"Point"},"properties":{"description":"","id":"TOORTE","name":"Ortolan","wheelchair_boarding":"available"},"type":"Feature"},{"geometry":{"coordinates":[5.932379,43.110798],"type":"Point"},"properties":{"description":"","id":"TOGRIE","name":"Grignan","wheelchair_boarding":"available"},"type":"Feature"},{"geometry":{"coordinates":[5.850462,43.137733],"type":"Point"},"properties":{"description":"","id":"OLJAVO","name":"JAS de Ville (Ollioules)","wheelchair_boarding":"available"},"type":"Feature"},{"geometry":{"coordinates":[5.891239,43.129073],"type":"Point"},"properties":{"description":"","id":"TOMARE","name":"Collège Marquisanne","wheelchair_boarding":"available"},"type":"Feature"},{"geometry":{"coordinates":[5.919145,43.138278],"type":"Point"},"properties":{"description":"","id":"TOGINE","name":"Génin","wheelchair_boarding":"available"},"type":"Feature"},{"geometry":{"coordinates":[5.862186,43.114506],"type":"Point"},"properties":{"description":"","id":"SEFLON","name":"Floréal","wheelchair_boarding":"available"},"type":"Feature"},{"geometry":{"coordinates":[5.879074,43.127538],"type":"Point"},"properties":{"description":"","id":"OLCFLS","name":"Clinique des Fleurs","wheelchair_boarding":"available"},"type":"Feature"},{"geometry":{"coordinates":[5.987725,43.107541],"type":"Point"},"properties":{"description":"","id":"GAPROS","name":"Terre Promise","wheelchair_boarding":"available"},"type":"Feature"},{"geometry":{"coordinates":[5.961738,43.126989],"type":"Point"},"properties":{"description":"","id":"TOECBS","name":"Ecoles (Brunet)","wheelchair_boarding":"available"},"type":"Feature"},{"geometry":{"coordinates":[6.146901,43.056454],"type":"Point"},"properties":{"description":"","id":"HYCPLO","name":"Campéoles","wheelchair_boarding":"available"},"type":"Feature"},{"geometry":{"coordinates":[6.121445,43.107495],"type":"Point"},"properties":{"description":"","id":"HYPANO","name":"Panhard","wheelchair_boarding":"available"},"type":"Feature"},{"geometry":{"coordinates":[5.88465,43.131246],"type":"Point"},"properties":{"description":"","id":"TOZOUN","name":"Zoursons","wheelchair_boarding":"available"},"type":"Feature"},{"geometry":{"coordinates":[5.911834,43.151949],"type":"Point"},"properties":{"description":"","id":"TOMELS","name":"Martelle","wheelchair_boarding":"available"},"type":"Feature"},{"geometry":{"coordinates":[6.147296,43.065186],"type":"Point"},"properties":{"description":"","id":"HYCPTE","name":"La Capte","wheelchair_boarding":"available"},"type":"Feature"},{"geometry":{"coordinates":[5.953338,43.129901],"type":"Point"},"properties":{"description":"","id":"TOFARS","name":"Fort D'Artigues","wheelchair_boarding":"available"},"type":"Feature"},{"geometry":{"coordinates":[6.011955,43.121323],"type":"Point"},"properties":{"description":"","id":"GAROOO","name":"Roosevelt","wheelchair_boarding":"available"},"type":"Feature"},{"geometry":{"coordinates":[6.147093,43.06564],"type":"Point"},"properties":{"description":"","id":"HYCPTO","name":"La Capte","wheelchair_boarding":"available"},"type":"Feature"},{"geometry":{"coordinates":[6.097778,43.159459],"type":"Point"},"properties":{"description":"","id":"CRVERN","name":"Verdillon","wheelchair_boarding":"available"},"type":"Feature"},{"geometry":{"coordinates":[5.999721,43.135913],"type":"Point"},"properties":{"description":"","id":"VAFLUS","name":"Frères Lumière","wheelchair_boarding":"available"},"type":"Feature"},{"geometry":{"coordinates":[6.097635,43.160456],"type":"Point"},"properties":{"description":"","id":"CRGEN1","name":"Genévriers 1","wheelchair_boarding":"available"},"type":"Feature"},{"geometry":{"coordinates":[5.826274,43.097232],"type":"Point"},"properties":{"description":"","id":"SICFFO","name":"Collège F Fillol","wheelchair_boarding":"available"},"type":"Feature"},{"geometry":{"coordinates":[6.035298,43.13606],"type":"Point"},"properties":{"description":"","id":"GAGPAO","name":"Gare Pauline","wheelchair_boarding":"available"},"type":"Feature"},{"geometry":{"coordinates":[5.836895,43.108434],"type":"Point"},"properties":{"description":"","id":"SIPERN","name":"Pertuade","wheelchair_boarding":"available"},"type":"Feature"},{"geometry":{"coordinates":[5.90537,43.128327],"type":"Point"},"properties":{"description":"","id":"TOBRE6","name":"Bon Rencontre","wheelchair_boarding":"available"},"type":"Feature"},{"geometry":{"coordinates":[6.128735,43.110928],"type":"Point"},"properties":{"description":"","id":"HYHILE","name":"St Hilaire","wheelchair_boarding":"available"},"type":"Feature"},{"geometry":{"coordinates":[5.901108,43.099012],"type":"Point"},"properties":{"description":"","id":"SEREGN","name":"Régina","wheelchair_boarding":"available"},"type":"Feature"},{"geometry":{"coordinates":[5.866746,43.13234],"type":"Point"},"properties":{"description":"","id":"OLROYN","name":"Royale","wheelchair_boarding":"available"},"type":"Feature"},{"geometry":{"coordinates":[6.12599,43.091607],"type":"Point"},"properties":{"description":"","id":"HYOLIS","name":"Oliveraie","wheelchair_boarding":"available"},"type":"Feature"},{"geometry":{"coordinates":[5.890953,43.080865],"type":"Point"},"properties":{"description":"","id":"SECASO","name":"Casino","wheelchair_boarding":"available"},"type":"Feature"},{"geometry":{"coordinates":[5.932679,43.135471],"type":"Point"},"properties":{"description":"","id":"TO3PIN","name":"3 Pins (Ste Anne)","wheelchair_boarding":"available"},"type":"Feature"},{"geometry":{"coordinates":[5.962182,43.127281],"type":"Point"},"properties":{"description":"","id":"TOECBN","name":"Ecoles (Brunet)","wheelchair_boarding":"available"},"type":"Feature"},{"geometry":{"coordinates":[5.888114,43.120331],"type":"Point"},"properties":{"description":"","id":"TOOCLN","name":"Octroi (Lagoubran)","wheelchair_boarding":"available"},"type":"Feature"},{"geometry":{"coordinates":[5.880184,43.122643],"type":"Point"},"properties":{"description":"","id":"OLCCOO","name":"Ctre Cial Ollioules","wheelchair_boarding":"available"},"type":"Feature"},{"geometry":{"coordinates":[5.999264,43.135828],"type":"Point"},"properties":{"description":"","id":"VAFLUN","name":"Frères Lumière","wheelchair_boarding":"available"},"type":"Feature"},{"geometry":{"coordinates":[6.07849,43.14413],"type":"Point"},"properties":{"description":"","id":"CRMMAN","name":"Ecole M. Mauron","wheelchair_boarding":"available"},"type":"Feature"},{"geometry":{"coordinates":[5.814991,43.114297],"type":"Point"},"properties":{"description":"","id":"SIGALN","name":"Galets","wheelchair_boarding":"available"},"type":"Feature"},{"geometry":{"coordinates":[5.882338,43.134512],"type":"Point"},"properties":{"description":"","id":"TOBCAO","name":"Beaucaire","wheelchair_boarding":"available"},"type":"Feature"},{"geometry":{"coordinates":[6.019005,43.128544],"type":"Point"},"properties":{"description":"","id":"GAHERS","name":"Herminier (La Garde)","wheelchair_boarding":"available"},"type":"Feature"},{"geometry":{"coordinates":[5.922628,43.126066],"type":"Point"},"properties":{"description":"","id":"TOPOCN","name":"Porte Castigneau","wheelchair_boarding":"available"},"type":"Feature"},{"geometry":{"coordinates":[5.91488,43.125642],"type":"Point"},"properties":{"description":"","id":"BNROCN","name":"Rocade","wheelchair_boarding":"available"},"type":"Feature"},{"geometry":{"coordinates":[6.136418,43.095381],"type":"Point"},"properties":{"description":"","id":"HYPLYE","name":"Palyvestre","wheelchair_boarding":"available"},"type":"Feature"},{"geometry":{"coordinates":[6.092929,43.125961],"type":"Point"},"properties":{"description":"","id":"HYSGVN","name":"St Gervais","wheelchair_boarding":"available"},"type":"Feature"},{"geometry":{"coordinates":[5.986579,43.129458],"type":"Point"},"properties":{"description":"","id":"VAENGN","name":"Engouvins","wheelchair_boarding":"available"},"type":"Feature"},{"geometry":{"coordinates":[5.844796,43.091357],"type":"Point"},"properties":{"description":"","id":"SIBEAN","name":"Beaugency","wheelchair_boarding":"available"},"type":"Feature"},{"geometry":{"coordinates":[6.134503,43.113659],"type":"Point"},"properties":{"description":"","id":"HYBRAE","name":"Branly","wheelchair_boarding":"available"},"type":"Feature"},{"geometry":{"coordinates":[6.070459,43.092717],"type":"Point"},"properties":{"description":"","id":"CAPAGE","name":"Ecole M. Pagnol","wheelchair_boarding":"available"},"type":"Feature"},{"geometry":{"coordinates":[6.128655,43.107251],"type":"Point"},"properties":{"description":"","id":"HYESPO","name":"Espace 3000","wheelchair_boarding":"available"},"type":"Feature"},{"geometry":{"coordinates":[5.906255,43.144174],"type":"Point"},"properties":{"description":"","id":"TOJQIO","name":"Jonquière","wheelchair_boarding":"available"},"type":"Feature"},{"geometry":{"coordinates":[5.980486,43.113079],"type":"Point"},"properties":{"description":"","id":"GABOSN","name":"Bosquet","wheelchair_boarding":"available"},"type":"Feature"},{"geometry":{"coordinates":[5.937542,43.112161],"type":"Point"},"properties":{"description":"","id":"TOBZLN","name":"Bazeilles","wheelchair_boarding":"available"},"type":"Feature"},{"geometry":{"coordinates":[5.901671,43.139242],"type":"Point"},"properties":{"description":"","id":"TOPIRS","name":"Les Pins (Les Routes)","wheelchair_boarding":"available"},"type":"Feature"},{"geometry":{"coordinates":[6.119176,43.038846],"type":"Point"},"properties":{"description":"","id":"HYBRQN","name":"Les Barques","wheelchair_boarding":"available"},"type":"Feature"},{"geometry":{"coordinates":[5.998295,43.120655],"type":"Point"},"properties":{"description":"","id":"GASAVN","name":"Savels","wheelchair_boarding":"available"},"type":"Feature"},{"geometry":{"coordinates":[6.110375,43.124316],"type":"Point"},"properties":{"description":"","id":"HYBVAE","name":"Beauvallon","wheelchair_boarding":"available"},"type":"Feature"},{"geometry":{"coordinates":[5.967963,43.112448],"type":"Point"},"properties":{"description":"","id":"TOBARN","name":"Baratier","wheelchair_boarding":"available"},"type":"Feature"},{"geometry":{"coordinates":[5.919626,43.136156],"type":"Point"},"properties":{"description":"","id":"TOLMYO","name":"Lamy","wheelchair_boarding":"available"},"type":"Feature"},{"geometry":{"coordinates":[6.126872,43.105716],"type":"Point"},"properties":{"description":"","id":"HYVILE","name":"La Vilette","wheelchair_boarding":"available"},"type":"Feature"},{"geometry":{"coordinates":[5.822683,43.123141],"type":"Point"},"properties":{"description":"","id":"OLGARE","name":"Gare (Ollioules/Sanary)","wheelchair_boarding":"available"},"type":"Feature"},{"geometry":{"coordinates":[6.122671,43.084334],"type":"Point"},"properties":{"description":"","id":"HYLBRS","name":"Léon Bérard","wheelchair_boarding":"available"},"type":"Feature"},{"geometry":{"coordinates":[6.110665,43.039419],"type":"Point"},"properties":{"description":"","id":"HYMADS","name":"Madrague","wheelchair_boarding":"available"},"type":"Feature"},{"geometry":{"coordinates":[6.026789,43.086988],"type":"Point"},"properties":{"description":"","id":"PRCLNO","name":"Colle Noire (Le Pradet)","wheelchair_boarding":"available"},"type":"Feature"},{"geometry":{"coordinates":[5.906779,43.11788],"type":"Point"},"properties":{"description":"","id":"BNBVIO","name":"Base de Vie Ouest","wheelchair_boarding":"available"},"type":"Feature"},{"geometry":{"coordinates":[5.931197,43.163812],"type":"Point"},"properties":{"description":"","id":"TOVIEN","name":"La Vierge","wheelchair_boarding":"available"},"type":"Feature"},{"geometry":{"coordinates":[6.136831,43.038084],"type":"Point"},"properties":{"description":"","id":"HYSABN","name":"Renée Sabran","wheelchair_boarding":"available"},"type":"Feature"},{"geometry":{"coordinates":[5.99013,43.110382],"type":"Point"},"properties":{"description":"","id":"GALOTE","name":"Loti","wheelchair_boarding":"available"},"type":"Feature"},{"geometry":{"coordinates":[5.831246,43.109147],"type":"Point"},"properties":{"description":"","id":"SIEBIS","name":"El Biard","wheelchair_boarding":"available"},"type":"Feature"},{"geometry":{"coordinates":[6.120189,43.117762],"type":"Point"},"properties":{"description":"","id":"HYOASN","name":"L'Oasis","wheelchair_boarding":"available"},"type":"Feature"},{"geometry":{"coordinates":[5.970243,43.126017],"type":"Point"},"properties":{"description":"","id":"TOFOPN","name":"Font Pré","wheelchair_boarding":"available"},"type":"Feature"},{"geometry":{"coordinates":[6.12,43.107863],"type":"Point"},"properties":{"description":"","id":"HYGDFN","name":"Grotte des Fées","wheelchair_boarding":"available"},"type":"Feature"},{"geometry":{"coordinates":[6.0771,43.098345],"type":"Point"},"properties":{"description":"","id":"CAROUN","name":"Corniche des Roubauds","wheelchair_boarding":"available"},"type":"Feature"},{"geometry":{"coordinates":[6.023921,43.106422],"type":"Point"},"properties":{"description":"","id":"PRGPES","name":"Gabriel Péri","wheelchair_boarding":"available"},"type":"Feature"},{"geometry":{"coordinates":[5.881893,43.13187],"type":"Point"},"properties":{"description":"","id":"TOCAMO","name":"Camus","wheelchair_boarding":"available"},"type":"Feature"},{"geometry":{"coordinates":[5.846976,43.123608],"type":"Point"},"properties":{"description":"","id":"OLPIEO","name":"Piédardant","wheelchair_boarding":"available"},"type":"Feature"},{"geometry":{"coordinates":[5.925284,43.126794],"type":"Point"},"properties":{"description":"","id":"TOPOBO","name":"Péri / Obs","wheelchair_boarding":"available"},"type":"Feature"},{"geometry":{"coordinates":[5.876486,43.106778],"type":"Point"},"properties":{"description":"","id":"SEBARO","name":"Barel","wheelchair_boarding":"available"},"type":"Feature"},{"geometry":{"coordinates":[5.889336,43.12065],"type":"Point"},"properties":{"description":"","id":"TOOCLS","name":"Octroi (Lagoubran)","wheelchair_boarding":"available"},"type":"Feature"},{"geometry":{"coordinates":[5.859261,43.111755],"type":"Point"},"properties":{"description":"","id":"SEEBRO","name":"Ecole Brassens","wheelchair_boarding":"available"},"type":"Feature"},{"geometry":{"coordinates":[6.154727,43.030126],"type":"Point"},"properties":{"description":"","id":"HYESTS","name":"Estérel","wheelchair_boarding":"available"},"type":"Feature"},{"geometry":{"coordinates":[5.879392,43.098502],"type":"Point"},"properties":{"description":"","id":"SELBEE","name":"Lycée Beaussier","wheelchair_boarding":"available"},"type":"Feature"},{"geometry":{"coordinates":[5.948939,43.11025],"type":"Point"},"properties":{"description":"","id":"TOTOCN","name":"Toucas","wheelchair_boarding":"available"},"type":"Feature"},{"geometry":{"coordinates":[6.139944,43.121727],"type":"Point"},"properties":{"description":"","id":"HYXVCN","name":"XV ème Corps","wheelchair_boarding":"available"},"type":"Feature"},{"geometry":{"coordinates":[6.02685,43.137152],"type":"Point"},"properties":{"description":"","id":"GA4CH3","name":"4 Chemins (Pauline)","wheelchair_boarding":"available"},"type":"Feature"},{"geometry":{"coordinates":[5.895022,43.096738],"type":"Point"},"properties":{"description":"","id":"SEMOIT","name":"Mont des Oiseaux","wheelchair_boarding":"available"},"type":"Feature"},{"geometry":{"coordinates":[5.877335,43.109167],"type":"Point"},"properties":{"description":"","id":"SESMAE","name":"Stade Marquet","wheelchair_boarding":"available"},"type":"Feature"},{"geometry":{"coordinates":[5.966637,43.125129],"type":"Point"},"properties":{"description":"","id":"TOPRAE","name":"Prairie","wheelchair_boarding":"available"},"type":"Feature"},{"geometry":{"coordinates":[5.844399,43.0897],"type":"Point"},"properties":{"description":"","id":"SIMASE","name":"Mascotte","wheelchair_boarding":"available"},"type":"Feature"},{"geometry":{"coordinates":[5.91873,43.125072],"type":"Point"},"properties":{"description":"","id":"BNJAUO","name":"Jauréguiberry 2","wheelchair_boarding":"available"},"type":"Feature"},{"geometry":{"coordinates":[6.080215,43.119097],"type":"Point"},"properties":{"description":"","id":"CRSANE","name":"Santolines","wheelchair_boarding":"available"},"type":"Feature"},{"geometry":{"coordinates":[6.114783,43.123816],"type":"Point"},"properties":{"description":"","id":"HYROTO","name":"Roche Taillée","wheelchair_boarding":"available"},"type":"Feature"},{"geometry":{"coordinates":[5.884119,43.098517],"type":"Point"},"properties":{"description":"","id":"SEKENS","name":"Kennedy","wheelchair_boarding":"available"},"type":"Feature"},{"geometry":{"coordinates":[6.137198,43.121269],"type":"Point"},"properties":{"description":"","id":"HYBSJS","name":"Beauséjour (Hyères)","wheelchair_boarding":"available"},"type":"Feature"},{"geometry":{"coordinates":[5.917201,43.133722],"type":"Point"},"properties":{"description":"","id":"TOGLAE","name":"Glacière","wheelchair_boarding":"available"},"type":"Feature"},{"geometry":{"coordinates":[5.812902,43.103782],"type":"Point"},"properties":{"description":"","id":"SIHOIE","name":"Les Hoirs","wheelchair_boarding":"available"},"type":"Feature"},{"geometry":{"coordinates":[5.849287,43.109502],"type":"Point"},"properties":{"description":"","id":"SELERN","name":"Léry","wheelchair_boarding":"available"},"type":"Feature"},{"geometry":{"coordinates":[5.886679,43.10115],"type":"Point"},"properties":{"description":"","id":"SEPCHN","name":"Porte des Chantiers","wheelchair_boarding":"available"},"type":"Feature"},{"geometry":{"coordinates":[5.921633,43.125722],"type":"Point"},"properties":{"description":"","id":"BNCASN","name":"Porte Castigneau","wheelchair_boarding":"available"},"type":"Feature"},{"geometry":{"coordinates":[5.955195,43.124419],"type":"Point"},"properties":{"description":"","id":"TOPSJN","name":"Pont St Jean","wheelchair_boarding":"available"},"type":"Feature"},{"geometry":{"coordinates":[5.856664,43.105726],"type":"Point"},"properties":{"description":"","id":"SEVIGN","name":"Vignelongue","wheelchair_boarding":"available"},"type":"Feature"},{"geometry":{"coordinates":[5.896413,43.129369],"type":"Point"},"properties":{"description":"","id":"TOCMPN","name":"Ch. Mon Paradis","wheelchair_boarding":"available"},"type":"Feature"},{"geometry":{"coordinates":[5.90624,43.077096],"type":"Point"},"properties":{"description":"","id":"SMPINN","name":"Pin Rolland","wheelchair_boarding":"available"},"type":"Feature"},{"geometry":{"coordinates":[6.14423,43.128852],"type":"Point"},"properties":{"description":"","id":"HYV20E","name":"VdR20","wheelchair_boarding":"available"},"type":"Feature"},{"geometry":{"coordinates":[5.882554,43.134806],"type":"Point"},"properties":{"description":"","id":"TOBCAE","name":"Beaucaire","wheelchair_boarding":"available"},"type":"Feature"},{"geometry":{"coordinates":[5.852913,43.088429],"type":"Point"},"properties":{"description":"","id":"SIMOUN","name":"Mouton","wheelchair_boarding":"available"},"type":"Feature"},{"geometry":{"coordinates":[6.061194,43.131414],"type":"Point"},"properties":{"description":"","id":"CRCHJN","name":"Château Jaune","wheelchair_boarding":"available"},"type":"Feature"},{"geometry":{"coordinates":[5.854513,43.115359],"type":"Point"},"properties":{"description":"","id":"SELANE","name":"Langevin","wheelchair_boarding":"available"},"type":"Feature"},{"geometry":{"coordinates":[5.862155,43.108645],"type":"Point"},"properties":{"description":"","id":"SEMESN","name":"Messidor","wheelchair_boarding":"available"},"type":"Feature"},{"geometry":{"coordinates":[6.030157,43.107754],"type":"Point"},"properties":{"description":"","id":"PR4SAN","name":"4 Saisons","wheelchair_boarding":"available"},"type":"Feature"},{"geometry":{"coordinates":[5.923185,43.170361],"type":"Point"},"properties":{"description":"","id":"REPILE","name":"Pilon","wheelchair_boarding":"available"},"type":"Feature"},{"geometry":{"coordinates":[5.829476,43.089493],"type":"Point"},"properties":{"description":"","id":"SIBARO","name":"Barras","wheelchair_boarding":"available"},"type":"Feature"},{"geometry":{"coordinates":[6.143692,43.03619],"type":"Point"},"properties":{"description":"","id":"HYARBS","name":"Arbanais","wheelchair_boarding":"available"},"type":"Feature"},{"geometry":{"coordinates":[5.804779,43.077131],"type":"Point"},"properties":{"description":"","id":"SIMAIN","name":"Le Mail","wheelchair_boarding":"available"},"type":"Feature"},{"geometry":{"coordinates":[6.190301,43.127171],"type":"Point"},"properties":{"description":"","id":"HYMVNN","name":"Mauvanne","wheelchair_boarding":"available"},"type":"Feature"},{"geometry":{"coordinates":[5.809733,43.087684],"type":"Point"},"properties":{"description":"","id":"SIRAYO","name":"Rayolet","wheelchair_boarding":"available"},"type":"Feature"},{"geometry":{"coordinates":[6.117024,43.118928],"type":"Point"},"properties":{"description":"","id":"HYCJFN","name":"Collège Jules Ferry","wheelchair_boarding":"available"},"type":"Feature"},{"geometry":{"coordinates":[5.847198,43.137594],"type":"Point"},"properties":{"description":"","id":"OLCENO","name":"Ollioules Centre","wheelchair_boarding":"available"},"type":"Feature"},{"geometry":{"coordinates":[6.066745,43.100118],"type":"Point"},"properties":{"description":"","id":"CAPASE","name":"Paradis Sud","wheelchair_boarding":"available"},"type":"Feature"},{"geometry":{"coordinates":[5.86637,43.138141],"type":"Point"},"properties":{"description":"","id":"OLCTAN","name":"Château d'Eau","wheelchair_boarding":"available"},"type":"Feature"},{"geometry":{"coordinates":[6.192921,43.169271],"type":"Point"},"properties":{"description":"","id":"HY3BOS","name":"3èmes Borrels","wheelchair_boarding":"available"},"type":"Feature"},{"geometry":{"coordinates":[5.981351,43.113878],"type":"Point"},"properties":{"description":"","id":"GAGUES","name":"Guès","wheelchair_boarding":"available"},"type":"Feature"},{"geometry":{"coordinates":[5.847861,43.142344],"type":"Point"},"properties":{"description":"","id":"OLBONE","name":"Bonnefont","wheelchair_boarding":"available"},"type":"Feature"},{"geometry":{"coordinates":[6.189854,43.127171],"type":"Point"},"properties":{"description":"","id":"HYMVNS","name":"Mauvanne","wheelchair_boarding":"available"},"type":"Feature"},{"geometry":{"coordinates":[5.934658,43.107045],"type":"Point"},"properties":{"description":"","id":"TOMITS","name":"Mître","wheelchair_boarding":"available"},"type":"Feature"},{"geometry":{"coordinates":[5.849945,43.116735],"type":"Point"},"properties":{"description":"","id":"SEBRUN","name":"Bruxelles","wheelchair_boarding":"available"},"type":"Feature"},{"geometry":{"coordinates":[5.995485,43.131319],"type":"Point"},"properties":{"description":"","id":"VALOGN","name":"Nouveaux logis","wheelchair_boarding":"available"},"type":"Feature"},{"geometry":{"coordinates":[6.137883,43.110143],"type":"Point"},"properties":{"description":"","id":"HYGROE","name":"Gymnase Rougières","wheelchair_boarding":"available"},"type":"Feature"},{"geometry":{"coordinates":[6.032387,43.138222],"type":"Point"},"properties":{"description":"","id":"GASMAE","name":"Ste Marie","wheelchair_boarding":"available"},"type":"Feature"},{"geometry":{"coordinates":[5.952721,43.126295],"type":"Point"},"properties":{"description":"","id":"TOMCUS","name":"Marceau","wheelchair_boarding":"available"},"type":"Feature"},{"geometry":{"coordinates":[5.924563,43.1283],"type":"Point"},"properties":{"description":"","id":"TODARO","name":"Dardanelles","wheelchair_boarding":"available"},"type":"Feature"},{"geometry":{"coordinates":[5.81149,43.112549],"type":"Point"},"properties":{"description":"","id":"SISCEO","name":"Square Cesmat","wheelchair_boarding":"available"},"type":"Feature"},{"geometry":{"coordinates":[6.013926,43.128562],"type":"Point"},"properties":{"description":"","id":"GAJAVO","name":"Jardin Veyret","wheelchair_boarding":"available"},"type":"Feature"},{"geometry":{"coordinates":[5.893783,43.101612],"type":"Point"},"properties":{"description":"","id":"SETURN","name":"Turbines","wheelchair_boarding":"available"},"type":"Feature"},{"geometry":{"coordinates":[5.901291,43.100387],"type":"Point"},"properties":{"description":"","id":"SEHORE","name":"Horizons","wheelchair_boarding":"available"},"type":"Feature"},{"geometry":{"coordinates":[5.963941,43.118255],"type":"Point"},"properties":{"description":"","id":"TOROEN","name":"Roche (Serinette)","wheelchair_boarding":"available"},"type":"Feature"},{"geometry":{"coordinates":[6.024862,43.137023],"type":"Point"},"properties":{"description":"","id":"GA4CH4","name":"4 Chemins (Pauline)","wheelchair_boarding":"available"},"type":"Feature"},{"geometry":{"coordinates":[5.912636,43.152154],"type":"Point"},"properties":{"description":"","id":"TOMELN","name":"Martelle","wheelchair_boarding":"available"},"type":"Feature"},{"geometry":{"coordinates":[5.897141,43.102023],"type":"Point"},"properties":{"description":"","id":"SERVEO","name":"Rouve","wheelchair_boarding":"available"},"type":"Feature"},{"geometry":{"coordinates":[6.094881,43.156829],"type":"Point"},"properties":{"description":"","id":"CRCYPO","name":"Cyprès","wheelchair_boarding":"available"},"type":"Feature"},{"geometry":{"coordinates":[6.130791,43.09382],"type":"Point"},"properties":{"description":"","id":"HYAMIE","name":"L'Amiral","wheelchair_boarding":"available"},"type":"Feature"},{"geometry":{"coordinates":[6.114389,43.039339],"type":"Point"},"properties":{"description":"","id":"HYPIES","name":"Pierras","wheelchair_boarding":"available"},"type":"Feature"},{"geometry":{"coordinates":[5.901124,43.126785],"type":"Point"},"properties":{"description":"","id":"TOSTBN","name":"Stade (Bon Rencontre)","wheelchair_boarding":"available"},"type":"Feature"},{"geometry":{"coordinates":[5.933887,43.076386],"type":"Point"},"properties":{"description":"","id":"SMHSMT","name":"Hauts de St Mandrier","wheelchair_boarding":"available"},"type":"Feature"},{"geometry":{"coordinates":[5.987733,43.111706],"type":"Point"},"properties":{"description":"","id":"GALEME","name":"Le Mas","wheelchair_boarding":"available"},"type":"Feature"},{"geometry":{"coordinates":[5.819045,43.081028],"type":"Point"},"properties":{"description":"","id":"SICMAE","name":"Ch. Malogineste","wheelchair_boarding":"available"},"type":"Feature"},{"geometry":{"coordinates":[5.906531,43.144133],"type":"Point"},"properties":{"description":"","id":"TOJQIE","name":"Jonquière","wheelchair_boarding":"available"},"type":"Feature"},{"geometry":{"coordinates":[5.881881,43.133232],"type":"Point"},"properties":{"description":"","id":"TOTULO","name":"Tulipes","wheelchair_boarding":"available"},"type":"Feature"},{"geometry":{"coordinates":[5.947405,43.123208],"type":"Point"},"properties":{"description":"","id":"TOMERS","name":"Mermoz","wheelchair_boarding":"available"},"type":"Feature"},{"geometry":{"coordinates":[6.10046,43.162552],"type":"Point"},"properties":{"description":"","id":"CRMREO","name":"Mont Redon","wheelchair_boarding":"available"},"type":"Feature"},{"geometry":{"coordinates":[5.918613,43.125483],"type":"Point"},"properties":{"description":"","id":"BNJAUN","name":"Jauréguiberry 1","wheelchair_boarding":"available"},"type":"Feature"},{"geometry":{"coordinates":[5.864419,43.110289],"type":"Point"},"properties":{"description":"","id":"SEBTHS","name":"Berthe","wheelchair_boarding":"available"},"type":"Feature"},{"geometry":{"coordinates":[5.878784,43.105926],"type":"Point"},"properties":{"description":"","id":"SEGAGE","name":"Gagarine","wheelchair_boarding":"available"},"type":"Feature"},{"geometry":{"coordinates":[5.894943,43.099003],"type":"Point"},"properties":{"description":"","id":"SERESN","name":"Restanques (La Seyne)","wheelchair_boarding":"available"},"type":"Feature"},{"geometry":{"coordinates":[5.983469,43.129275],"type":"Point"},"properties":{"description":"","id":"TOCOUN","name":"Coupiane","wheelchair_boarding":"available"},"type":"Feature"},{"geometry":{"coordinates":[5.825217,43.086658],"type":"Point"},"properties":{"description":"","id":"SICORO","name":"Courtaude","wheelchair_boarding":"available"},"type":"Feature"},{"geometry":{"coordinates":[5.857465,43.082284],"type":"Point"},"properties":{"description":"","id":"SEMTTE","name":"Manette","wheelchair_boarding":"available"},"type":"Feature"},{"geometry":{"coordinates":[5.902731,43.150254],"type":"Point"},"properties":{"description":"","id":"TOBAGO","name":"Baguiers","wheelchair_boarding":"available"},"type":"Feature"},{"geometry":{"coordinates":[5.86799,43.131932],"type":"Point"},"properties":{"description":"","id":"OLROYS","name":"Royale","wheelchair_boarding":"available"},"type":"Feature"},{"geometry":{"coordinates":[5.948599,43.115851],"type":"Point"},"properties":{"description":"","id":"TOAGUS","name":"Aguillon","wheelchair_boarding":"available"},"type":"Feature"},{"geometry":{"coordinates":[6.126849,43.105719],"type":"Point"},"properties":{"description":"","id":"HYGUYT","name":"Ecole Guynemer (Hyères)","wheelchair_boarding":"available"},"type":"Feature"},{"geometry":{"coordinates":[5.928636,43.07423],"type":"Point"},"properties":{"description":"","id":"SMCABO","name":"Cabestan","wheelchair_boarding":"available"},"type":"Feature"},{"geometry":{"coordinates":[5.939058,43.126082],"type":"Point"},"properties":{"description":"","id":"TOCICN","name":"Cimetière (Central)","wheelchair_boarding":"available"},"type":"Feature"},{"geometry":{"coordinates":[5.930781,43.07401],"type":"Point"},"properties":{"description":"","id":"SMCARN","name":"Caravelle","wheelchair_boarding":"available"},"type":"Feature"},{"geometry":{"coordinates":[6.052547,43.124862],"type":"Point"},"properties":{"description":"","id":"CRBERS","name":"St Bernard","wheelchair_boarding":"available"},"type":"Feature"},{"geometry":{"coordinates":[6.152586,43.126774],"type":"Point"},"properties":{"description":"","id":"HYRTWE","name":"Rottweil","wheelchair_boarding":"available"},"type":"Feature"},{"geometry":{"coordinates":[6.112488,43.1206],"type":"Point"},"properties":{"description":"","id":"HYLECS","name":"Mal. Leclerc","wheelchair_boarding":"available"},"type":"Feature"},{"geometry":{"coordinates":[5.909531,43.151171],"type":"Point"},"properties":{"description":"","id":"TOPVXN","name":"Pelvoux","wheelchair_boarding":"available"},"type":"Feature"},{"geometry":{"coordinates":[6.082931,43.151713],"type":"Point"},"properties":{"description":"","id":"CRMAUE","name":"Maurric","wheelchair_boarding":"available"},"type":"Feature"},{"geometry":{"coordinates":[5.969082,43.11067],"type":"Point"},"properties":{"description":"","id":"TOCPBO","name":"Cap Brun","wheelchair_boarding":"available"},"type":"Feature"},{"geometry":{"coordinates":[5.942613,43.114739],"type":"Point"},"properties":{"description":"","id":"TOAICE","name":"Aicard","wheelchair_boarding":"available"},"type":"Feature"},{"geometry":{"coordinates":[5.914389,43.150408],"type":"Point"},"properties":{"description":"","id":"TOCIGO","name":"Cigalon","wheelchair_boarding":"available"},"type":"Feature"},{"geometry":{"coordinates":[5.925571,43.17663],"type":"Point"},"properties":{"description":"","id":"REREVE","name":"Revest","wheelchair_boarding":"available"},"type":"Feature"},{"geometry":{"coordinates":[5.895211,43.143786],"type":"Point"},"properties":{"description":"","id":"TOPIVO","name":"Les Pins (Valbertrand)","wheelchair_boarding":"available"},"type":"Feature"},{"geometry":{"coordinates":[5.929465,43.135581],"type":"Point"},"properties":{"description":"","id":"TOBDFN","name":"Bd du Faron","wheelchair_boarding":"available"},"type":"Feature"},{"geometry":{"coordinates":[5.880154,43.076519],"type":"Point"},"properties":{"description":"","id":"SEGOLS","name":"Golfe","wheelchair_boarding":"available"},"type":"Feature"},{"geometry":{"coordinates":[5.90886,43.095062],"type":"Point"},"properties":{"description":"","id":"SEBALE","name":"Balaguier","wheelchair_boarding":"available"},"type":"Feature"},{"geometry":{"coordinates":[5.899666,43.129271],"type":"Point"},"properties":{"description":"","id":"TODUSS","name":"Dusserre","wheelchair_boarding":"available"},"type":"Feature"},{"geometry":{"coordinates":[5.916789,43.141192],"type":"Point"},"properties":{"description":"","id":"TOJACS","name":"Jacquemin","wheelchair_boarding":"available"},"type":"Feature"},{"geometry":{"coordinates":[5.928086,43.07841],"type":"Point"},"properties":{"description":"","id":"SMPSMS","name":"Ponton St Mandrier","wheelchair_boarding":"available"},"type":"Feature"},{"geometry":{"coordinates":[6.142264,43.118168],"type":"Point"},"properties":{"description":"","id":"HYEXUN","name":"Ecole St Exupery","wheelchair_boarding":"available"},"type":"Feature"},{"geometry":{"coordinates":[6.196787,43.115148],"type":"Point"},"properties":{"description":"","id":"HYVICS","name":"Victoire","wheelchair_boarding":"available"},"type":"Feature"},{"geometry":{"coordinates":[5.876771,43.106974],"type":"Point"},"properties":{"description":"","id":"SEBARE","name":"Barel","wheelchair_boarding":"available"},"type":"Feature"},{"geometry":{"coordinates":[5.847844,43.133028],"type":"Point"},"properties":{"description":"","id":"OLVANO","name":"Vannelle","wheelchair_boarding":"available"},"type":"Feature"},{"geometry":{"coordinates":[6.145974,43.126167],"type":"Point"},"properties":{"description":"","id":"HYV15O","name":"VdR15","wheelchair_boarding":"available"},"type":"Feature"},{"geometry":{"coordinates":[5.900425,43.091125],"type":"Point"},"properties":{"description":"","id":"SEBTAO","name":"Tamaris","wheelchair_boarding":"available"},"type":"Feature"},{"geometry":{"coordinates":[5.978751,43.140521],"type":"Point"},"properties":{"description":"","id":"VADAPO","name":"Daudet (La Valette)","wheelchair_boarding":"available"},"type":"Feature"},{"geometry":{"coordinates":[6.021402,43.129118],"type":"Point"},"properties":{"description":"","id":"GALISO","name":"Liserons","wheelchair_boarding":"available"},"type":"Feature"},{"geometry":{"coordinates":[5.958533,43.129535],"type":"Point"},"properties":{"description":"","id":"TOJOUS","name":"Jouve","wheelchair_boarding":"available"},"type":"Feature"},{"geometry":{"coordinates":[5.965595,43.119203],"type":"Point"},"properties":{"description":"","id":"TOSTSN","name":"Stade (Serinette)","wheelchair_boarding":"available"},"type":"Feature"},{"geometry":{"coordinates":[5.89828,43.139495],"type":"Point"},"properties":{"description":"","id":"TOCHTS","name":"Chatelier","wheelchair_boarding":"available"},"type":"Feature"},{"geometry":{"coordinates":[6.005365,43.135885],"type":"Point"},"properties":{"description":"","id":"VASCLS","name":"Ste Claire","wheelchair_boarding":"available"},"type":"Feature"},{"geometry":{"coordinates":[6.013963,43.123317],"type":"Point"},"properties":{"description":"","id":"GALANS","name":"Langevin (La Garde)","wheelchair_boarding":"available"},"type":"Feature"},{"geometry":{"coordinates":[5.992851,43.118108],"type":"Point"},"properties":{"description":"","id":"GANOLS","name":"La Nôle","wheelchair_boarding":"available"},"type":"Feature"},{"geometry":{"coordinates":[6.038408,43.10902],"type":"Point"},"properties":{"description":"","id":"PRESQS","name":"Esquirol","wheelchair_boarding":"available"},"type":"Feature"},{"geometry":{"coordinates":[5.799346,43.074432],"type":"Point"},"properties":{"description":"","id":"SIPBRO","name":"Port du Brusc","wheelchair_boarding":"available"},"type":"Feature"},{"geometry":{"coordinates":[6.010005,43.122423],"type":"Point"},"properties":{"description":"","id":"GAPOSE","name":"Poste (La Garde)","wheelchair_boarding":"available"},"type":"Feature"},{"geometry":{"coordinates":[6.009985,43.124862],"type":"Point"},"properties":{"description":"","id":"GAGACS","name":"Garde Centre","wheelchair_boarding":"available"},"type":"Feature"},{"geometry":{"coordinates":[5.847486,43.122287],"type":"Point"},"properties":{"description":"","id":"OLFARE","name":"Farlède","wheelchair_boarding":"available"},"type":"Feature"},{"geometry":{"coordinates":[5.91336,43.128587],"type":"Point"},"properties":{"description":"","id":"TOPDSN","name":"Palais des Sports","wheelchair_boarding":"available"},"type":"Feature"},{"geometry":{"coordinates":[5.925082,43.079246],"type":"Point"},"properties":{"description":"","id":"SMPPRO","name":"Ponton Président","wheelchair_boarding":"available"},"type":"Feature"},{"geometry":{"coordinates":[5.849819,43.096682],"type":"Point"},"properties":{"description":"","id":"SIDENO","name":"Denans","wheelchair_boarding":"available"},"type":"Feature"},{"geometry":{"coordinates":[6.069104,43.096175],"type":"Point"},"properties":{"description":"","id":"CACANO","name":"Canebas","wheelchair_boarding":"available"},"type":"Feature"},{"geometry":{"coordinates":[6.157175,43.130421],"type":"Point"},"properties":{"description":"","id":"HYLGHS","name":"Lycée Golf Hôtel","wheelchair_boarding":"available"},"type":"Feature"},{"geometry":{"coordinates":[5.993265,43.14281],"type":"Point"},"properties":{"description":"","id":"VAROIS","name":"Roitelet","wheelchair_boarding":"available"},"type":"Feature"},{"geometry":{"coordinates":[5.836236,43.125595],"type":"Point"},"properties":{"description":"","id":"OLPEPN","name":"Pépinières","wheelchair_boarding":"available"},"type":"Feature"},{"geometry":{"coordinates":[5.811682,43.115586],"type":"Point"},"properties":{"description":"","id":"SICOLE","name":"Colline (Six Fours)","wheelchair_boarding":"available"},"type":"Feature"},{"geometry":{"coordinates":[5.898267,43.136542],"type":"Point"},"properties":{"description":"","id":"TOTESS","name":"Tési","wheelchair_boarding":"available"},"type":"Feature"},{"geometry":{"coordinates":[5.975631,43.125976],"type":"Point"},"properties":{"description":"","id":"TOHOTE","name":"Hôpital Ste Musse Terminus","wheelchair_boarding":"available"},"type":"Feature"},{"geometry":{"coordinates":[5.927552,43.166677],"type":"Point"},"properties":{"description":"","id":"REABES","name":"Abeilles d'Or","wheelchair_boarding":"available"},"type":"Feature"},{"geometry":{"coordinates":[5.977765,43.137223],"type":"Point"},"properties":{"description":"","id":"VABOSE","name":"Bosquette","wheelchair_boarding":"available"},"type":"Feature"},{"geometry":{"coordinates":[6.008228,43.128894],"type":"Point"},"properties":{"description":"","id":"GATHOO","name":"Thouar (La Garde)","wheelchair_boarding":"available"},"type":"Feature"},{"geometry":{"coordinates":[5.932312,43.163947],"type":"Point"},"properties":{"description":"","id":"TOVIES","name":"La Vierge","wheelchair_boarding":"available"},"type":"Feature"},{"geometry":{"coordinates":[5.91745,43.142351],"type":"Point"},"properties":{"description":"","id":"TOFROE","name":"Fort Rouge","wheelchair_boarding":"available"},"type":"Feature"},{"geometry":{"coordinates":[5.932204,43.1078],"type":"Point"},"properties":{"description":"","id":"TOPOLS","name":"Polygone","wheelchair_boarding":"available"},"type":"Feature"},{"geometry":{"coordinates":[6.110268,43.114321],"type":"Point"},"properties":{"description":"","id":"HYSTJE","name":"St Jean (Hyères)","wheelchair_boarding":"available"},"type":"Feature"},{"geometry":{"coordinates":[5.898592,43.096789],"type":"Point"},"properties":{"description":"","id":"SECOTO","name":"Collines Tamaris","wheelchair_boarding":"available"},"type":"Feature"},{"geometry":{"coordinates":[5.932709,43.074474],"type":"Point"},"properties":{"description":"","id":"SMGEOE","name":"St Georges","wheelchair_boarding":"available"},"type":"Feature"},{"geometry":{"coordinates":[6.023472,43.104184],"type":"Point"},"properties":{"description":"","id":"PRCEZO","name":"Cézanne (Le Pradet)","wheelchair_boarding":"available"},"type":"Feature"},{"geometry":{"coordinates":[5.945241,43.1293],"type":"Point"},"properties":{"description":"","id":"TOELGN","name":"Esclangon","wheelchair_boarding":"available"},"type":"Feature"},{"geometry":{"coordinates":[5.902204,43.14688],"type":"Point"},"properties":{"description":"","id":"TOBZGE","name":"Bouzigues","wheelchair_boarding":"available"},"type":"Feature"},{"geometry":{"coordinates":[5.926848,43.079557],"type":"Point"},"properties":{"description":"","id":"SMCSGE","name":"Creux St Georges","wheelchair_boarding":"available"},"type":"Feature"},{"geometry":{"coordinates":[5.981887,43.128196],"type":"Point"},"properties":{"description":"","id":"TOBRGE","name":"Berg","wheelchair_boarding":"available"},"type":"Feature"},{"geometry":{"coordinates":[6.140533,43.120102],"type":"Point"},"properties":{"description":"","id":"HYBRTS","name":"Brosset (Hyères)","wheelchair_boarding":"available"},"type":"Feature"},{"geometry":{"coordinates":[5.861819,43.107453],"type":"Point"},"properties":{"description":"","id":"SECAOS","name":"Cap d'Or","wheelchair_boarding":"available"},"type":"Feature"},{"geometry":{"coordinates":[6.150927,43.119741],"type":"Point"},"properties":{"description":"","id":"HYLAGN","name":"Agricampus","wheelchair_boarding":"available"},"type":"Feature"},{"geometry":{"coordinates":[5.888873,43.14811],"type":"Point"},"properties":{"description":"","id":"TOBHBE","name":"Bonnes Herbes","wheelchair_boarding":"available"},"type":"Feature"},{"geometry":{"coordinates":[5.848257,43.139826],"type":"Point"},"properties":{"description":"","id":"OLMAIN","name":"Mairie (Ollioules)","wheelchair_boarding":"available"},"type":"Feature"},{"geometry":{"coordinates":[5.907335,43.071665],"type":"Point"},"properties":{"description":"","id":"SMMARE","name":"Marégau","wheelchair_boarding":"available"},"type":"Feature"},{"geometry":{"coordinates":[5.881701,43.139671],"type":"Point"},"properties":{"description":"","id":"OLCORT","name":"Cordeille","wheelchair_boarding":"available"},"type":"Feature"},{"geometry":{"coordinates":[5.928817,43.077937],"type":"Point"},"properties":{"description":"","id":"SMBATE","name":"Bar Tabac","wheelchair_boarding":"available"},"type":"Feature"},{"geometry":{"coordinates":[6.1471,43.060662],"type":"Point"},"properties":{"description":"","id":"HYVIGE","name":"La Vigie","wheelchair_boarding":"available"},"type":"Feature"},{"geometry":{"coordinates":[5.813901,43.110094],"type":"Point"},"properties":{"description":"","id":"SISBAE","name":"Square des Bains","wheelchair_boarding":"available"},"type":"Feature"},{"geometry":{"coordinates":[5.938614,43.107376],"type":"Point"},"properties":{"description":"","id":"TOFLON","name":"Fort St-Louis","wheelchair_boarding":"available"},"type":"Feature"},{"geometry":{"coordinates":[5.933335,43.119739],"type":"Point"},"properties":{"description":"","id":"TOCFAN","name":"Cours Lafayette","wheelchair_boarding":"available"},"type":"Feature"},{"geometry":{"coordinates":[6.170832,43.100407],"type":"Point"},"properties":{"description":"","id":"HYCEIE","name":"Ceinturon","wheelchair_boarding":"available"},"type":"Feature"},{"geometry":{"coordinates":[5.812086,43.100869],"type":"Point"},"properties":{"description":"","id":"SIMEDO","name":"Méditerranée","wheelchair_boarding":"available"},"type":"Feature"},{"geometry":{"coordinates":[5.911598,43.145085],"type":"Point"},"properties":{"description":"","id":"TOHUIE","name":"Huilerie","wheelchair_boarding":"available"},"type":"Feature"},{"geometry":{"coordinates":[5.895791,43.137617],"type":"Point"},"properties":{"description":"","id":"TOMRQN","name":"Minorque","wheelchair_boarding":"available"},"type":"Feature"},{"geometry":{"coordinates":[5.943006,43.117423],"type":"Point"},"properties":{"description":"","id":"TOCISO","name":"Courlis","wheelchair_boarding":"available"},"type":"Feature"},{"geometry":{"coordinates":[6.149535,43.083507],"type":"Point"},"properties":{"description":"","id":"HYPA1E","name":"P+R Arromanches 1","wheelchair_boarding":"available"},"type":"Feature"},{"geometry":{"coordinates":[6.143686,43.116815],"type":"Point"},"properties":{"description":"","id":"HYSTES","name":"St Exupéry","wheelchair_boarding":"available"},"type":"Feature"},{"geometry":{"coordinates":[5.996192,43.113011],"type":"Point"},"properties":{"description":"","id":"GAPOUS","name":"Pouverel","wheelchair_boarding":"available"},"type":"Feature"},{"geometry":{"coordinates":[5.966701,43.118588],"type":"Point"},"properties":{"description":"","id":"TOLBAE","name":"La Barre (Serinette)","wheelchair_boarding":"available"},"type":"Feature"},{"geometry":{"coordinates":[6.072785,43.119376],"type":"Point"},"properties":{"description":"","id":"CRLMOO","name":"La Moutonne","wheelchair_boarding":"available"},"type":"Feature"},{"geometry":{"coordinates":[6.08738,43.126127],"type":"Point"},"properties":{"description":"","id":"HYSTAN","name":"L'Estalle","wheelchair_boarding":"available"},"type":"Feature"},{"geometry":{"coordinates":[6.121617,43.105184],"type":"Point"},"properties":{"description":"","id":"HYCTBO","name":"Costebelle","wheelchair_boarding":"available"},"type":"Feature"},{"geometry":{"coordinates":[5.911771,43.144729],"type":"Point"},"properties":{"description":"","id":"TOOCJO","name":"Octroi (Jonquet)","wheelchair_boarding":"available"},"type":"Feature"},{"geometry":{"coordinates":[6.092942,43.12588],"type":"Point"},"properties":{"description":"","id":"HYSGVS","name":"St Gervais","wheelchair_boarding":"available"},"type":"Feature"},{"geometry":{"coordinates":[5.995701,43.119455],"type":"Point"},